name	@lat	@lon
Ignacego Mościckiego	50.0812099	20.0373209
Stefana Żeromskiego	50.0793025	20.0367006
Floriańska	50.0634602	19.9402948
Aleja Róż	50.0800685	20.0399178
Księcia Józefa	50.0501326	19.9062355
Księcia Józefa	50.0497776	19.9057443
Księcia Józefa	50.0495488	19.9050043
Skawińska	50.0477063	19.9430696
Aleja generała Władysława Andersa	50.0843100	20.0204209
Kocmyrzowska	50.0808003	20.0302093
Kocmyrzowska	50.0814184	20.0309200
Zakopiańska	49.9913266	19.9166155
Borkowska	50.0042628	19.9051587
Kamieniecka	50.0011272	19.8984569
Marii Konopnickiej	50.0499808	19.9316952
Józefa Dietla	50.0500093	19.9357858
Tadeusza Ptaszyckiego	50.0680538	20.0663471
Brzeska	50.0801148	20.1858771
Jasnogórska	50.0963040	19.8916542
Jasnogórska	50.0953668	19.8920452
Rondo Stanisława Barei	50.0886564	19.9737931
Aleja generała Władysława Andersa	50.0818943	20.0245652
Marchołta	50.0924776	19.9848660
Księcia Józefa	50.0488352	19.9021543
Aleja 3 Maja	50.0592562	19.9242376
Józefa	50.0503474	19.9433183
Plac Wolnica	50.0490913	19.9440389
Zakopiańska	49.9890213	19.9153862
Żmujdzka	50.0850526	19.9538014
Balicka	50.0812481	19.8906295
Zjazd Rogoziany	50.0722866	19.8069888
Zjazd Rogoziany	50.0723603	19.8069797
Bronowicka	50.0809064	19.8923203
Jesionowa	50.0705245	19.8768710
Samuela Bogumiła Lindego	50.0782921	19.8704166
Karola Popiela	50.0749428	19.8868605
Marka Nawary	50.0746547	19.8860800
Księdza Ferdynanda Machaya	50.0743904	19.8846580
Justowska	50.0753526	19.8839624
Edwarda Bzymka-Strzałkowskiego	50.0753991	19.8845276
Eugeniusza Kwiatkowskiego	50.0742128	19.8866281
Włościańska	50.0735995	19.8887776
Michała Drzymały	50.0738448	19.8927242
Stanisława Przybyszewskiego	50.0730693	19.8958373
Wrocławska	50.0817715	19.9153402
Wrocławska	50.0820302	19.9153890
Wrocławska	50.0822990	19.9154396
Józefa Wybickiego	50.0829417	19.9200551
Wojciecha Weissa	50.0847517	19.9087699
Murarska	50.0861167	19.9120894
Walerego Eljasza-Radzikowskiego	50.0830177	19.9100180
Gnieźnieńska	50.0850675	19.9065486
Zygmuntowska	50.0858765	19.9077269
Murarska	50.0840993	19.9111091
Józefa Chełmońskiego	50.0852741	19.9171588
Józefa Mehoffera	50.0875275	19.9127381
Józefa Chełmońskiego	50.0864074	19.9138768
Wielkotyrnowska	50.0870116	19.9145969
Wincentego Wodzinowskiego	50.0849322	19.9134435
Gustawa Ehrenberga	50.0850964	19.9128071
Gustawa Ehrenberga	50.0832441	19.9120777
Piotra Wysockiego	50.0847717	19.9120282
Wacława Nałkowskiego	50.0847697	19.9139298
Wacława Nałkowskiego	50.0830190	19.9130965
Heleny Modrzejewskiej	50.0866728	19.9151522
Ludomira Różyckiego	50.0882925	19.9116742
Tadeusza Makowskiego	50.0876289	19.9188843
Wojciecha Weissa	50.0886047	19.9096173
Ludomira Różyckiego	50.0883065	19.9100582
Wojciecha Weissa	50.0875221	19.9094405
Ludomira Różyckiego	50.0883913	19.9092748
Aleja generała Władysława Andersa	50.0786317	20.0282841
Rondo Kocmyrzowskie imienia księdza Józefa Gorzelanego	50.0793090	20.0275293
Aleja Solidarności	50.0769639	20.0549922
Aleja Przyjaźni	50.0740549	20.0420182
Aleja Jana Pawła II	50.0731148	20.0179914
Plac Centralny imienia Ronalda Reagana	50.0714580	20.0378161
Rondo Czyżyńskie	50.0731618	20.0173710
Rondo Mogilskie	50.0653072	19.9588781
Bieńczycka	50.0742135	20.0183217
Aleja Jana Pawła II	50.0737880	20.0168966
Juliana Dunajewskiego	50.0637506	19.9333417
Lubicz	50.0656241	19.9568468
Gustawa Herlinga-Grudzińskiego	50.0511425	19.9617413
Most Kotlarski	50.0523940	19.9609073
Stanisława Klimeckiego	50.0461617	19.9722295
Most Kotlarski	50.0524509	19.9611483
Podgórska	50.0466765	19.9456575
Targowa	50.0459328	19.9539047
Solna	50.0480071	19.9536568
Marii Konopnickiej	50.0512961	19.9306058
Warszawska	50.0735313	19.9438111
Warszawska	50.0717787	19.9444879
Aleja 29 Listopada	50.0740042	19.9452526
Aleja 29 Listopada	50.0733587	19.9445687
Aleja 29 Listopada	50.0748665	19.9466042
Warszawska	50.0728338	19.9432289
Marii Konopnickiej	50.0490391	19.9324594
Marii Konopnickiej	50.0500579	19.9314365
Marii Konopnickiej	50.0489755	19.9322586
Most Zwierzyniecki	50.0487293	19.9062518
Generała Bohdana Zielińskiego	50.0481541	19.9084671
Most Zwierzyniecki	50.0487259	19.9066673
Most Zwierzyniecki	50.0491843	19.9045042
Monte Cassino	50.0487691	19.9309304
Marii Konopnickiej	50.0500184	19.9317422
Most Grunwaldzki	50.0497093	19.9343500
Rondo 308 Dywizjonu	50.0669853	20.0039639
Aleja Pokoju	50.0666625	20.0016163
Aleja Pokoju	50.0730003	20.0169363
Nowohucka	50.0677071	20.0045359
Bieńczycka	50.0791879	20.0263489
Aleja Pułkownika Władysława Beliny-Prażmowskiego	50.0665987	19.9597535
Rymarska	50.0670701	19.9689182
Janusza Supniewskiego	50.0684915	19.9683353
Rusałek	50.0739786	19.9618074
Olszańska	50.0708285	19.9625714
Rakowicka	50.0750953	19.9576661
Orląt Lwowskich	50.0724229	19.9614743
Józefa Brodowicza	50.0683243	19.9598464
Józefa Brodowicza	50.0680648	19.9598801
Generała Józefa Chłopickiego	50.0672416	19.9614590
Leona Misiołka	50.0672825	19.9605292
Pilotów	50.0808289	19.9739218
Pilotów	50.0817132	19.9785410
Ułanów	50.0815814	19.9785173
Karola Łowińskiego	50.0881327	20.0663513
Generała Leopolda Okulickiego	50.0881610	20.0042872
Karola Łowińskiego	50.0879322	20.0643100
Ujastek	50.0876877	20.0655729
Ujastek	50.0876601	20.0650834
Wiślicka	50.0932921	20.0066423
Nowohucka	50.0728922	20.0041009
Marii Dąbrowskiej	50.0749207	20.0127350
Marii Dąbrowskiej	50.0740166	20.0128702
Marii Dąbrowskiej	50.0759194	20.0135974
Władysława Broniewskiego	50.0853472	20.0197311
Marii Dąbrowskiej	50.0809562	20.0156894
Władysława Broniewskiego	50.0879580	20.0202979
Mieczysława Karłowicza	50.0675482	19.9222867
Księcia Józefa	50.0490391	19.9035678
Jacka Malczewskiego	50.0510592	19.9022949
Aleja Marszałka Ferdinanda Focha	50.0592721	19.9246595
Wrocławska	50.0747972	19.9353405
Kawiory	50.0677091	19.9124972
Aleja Kijowska	50.0706629	19.9145847
Westerplatte	50.0640052	19.9449914
Kurniki	50.0672668	19.9432769
Pielęgniarek	50.0830038	19.9344447
Doktora Twardego	50.0827263	19.9345467
Bratysławska	50.0843893	19.9344404
Pielęgniarek	50.0831648	19.9343391
Generała Augusta Fieldorfa-Nila	50.0888453	19.9355495
"Batalionu ""Skała"" AK"	50.0881363	19.9237588
Nad Sudołem	50.0920150	19.9261760
Łukasza Górnickiego	50.0941060	19.9391512
Białoprądnicka	50.0938720	19.9382466
Zielony Most	50.0825161	19.8807497
Grażyny	50.0879355	19.9476638
Kuźnicy Kołłątajowskiej	50.0988282	19.9536620
Gabriela Narutowicza	50.0912688	19.9435391
Ojcowska	50.0909944	19.8811917
Siewna	50.0945254	19.9510457
Matki Pauli Zofii Tajber	50.0964579	19.9315802
Łukasza Górnickiego	50.0947192	19.9398283
Legnicka	50.0896683	19.9506890
Izydora Stella-Sawickiego	50.0876853	20.0012523
Wiślicka	50.0881563	20.0014959
Stanisława Przybyszewskiego	50.0722911	19.8955773
Zwierzyniecka	50.0557025	19.9282001
Smocza	50.0519025	19.9353489
Bernardyńska	50.0530389	19.9365913
Elizy Orzeszkowej	50.0499359	19.9387633
Beera Meiselsa	50.0505172	19.9418126
Generała Tadeusza Bora-Komorowskiego	50.0876100	20.0013396
Opolska	50.0895796	19.9101541
Opolska	50.0895885	19.9096260
Opolska	50.0894020	19.9101014
Opolska	50.0893694	19.9112890
Opolska	50.0917010	19.9357310
Opolska	50.0918006	19.9350629
Opolska	50.0901883	19.9430086
Estakada Generała Tadeusza Rozwadowskiego	50.0859728	19.9552185
Estakada Generała Tadeusza Rozwadowskiego	50.0867287	19.9522713
Estakada Generała Tadeusza Rozwadowskiego	50.0858990	19.9551699
Estakada Generała Tadeusza Rozwadowskiego	50.0853321	19.9574177
Aleja 29 Listopada	50.0858273	19.9542982
Estakada Generała pilota Mateusza Iżyckiego	50.0852440	19.9729513
Lublańska	50.0850585	19.9660882
Generała Tadeusza Bora-Komorowskiego	50.0877703	20.0013391
Generała Tadeusza Bora-Komorowskiego	50.0878308	20.0024335
Estakada Generała pilota Mateusza Iżyckiego	50.0850320	19.9692654
Mieczysława Medweckiego	50.0761631	20.0027445
Mieczysława Medweckiego	50.0761677	20.0086843
Nawojki	50.0698359	19.9055522
Czarnowiejska	50.0654041	19.9244769
Czarnowiejska	50.0658612	19.9245820
Karmelicka	50.0689081	19.9267104
Władysława Reymonta	50.0673438	19.9036439
Kazimierza Wielkiego	50.0749904	19.9114832
Witkowicka	50.1090794	19.9636927
Podgórska	50.0514557	19.9548792
Aleja Ignacego Daszyńskiego	50.0518321	19.9549144
Aleja Ignacego Daszyńskiego	50.0568351	19.9519993
Akacjowa	50.0816223	19.9788106
XX Pijarów	50.0849004	19.9756233
Akacjowa	50.0852434	19.9796657
Pilotów	50.0810937	19.9738977
Dobrego Pasterza	50.0876577	19.9969288
Strzelców	50.0893487	19.9737114
Powstańców	50.0977642	19.9723426
Imbramowska	50.0904453	19.9445200
Grażyny	50.0889797	19.9486250
Generała Tadeusza Bora-Komorowskiego	50.0877242	20.0003579
Generała Tadeusza Bora-Komorowskiego	50.0876342	20.0018924
Aleja Pokoju	50.0623247	19.9823027
Aleja Pokoju	50.0618872	19.9813775
Aleja Pokoju	50.0622400	19.9824810
Aleja Pokoju	50.0625700	19.9831968
Fabryczna	50.0606985	19.9705985
Fabryczna	50.0613522	19.9704829
Janusza Meissnera	50.0767535	19.9788463
Janusza Meissnera	50.0803899	19.9736168
Tadeusza Romanowicza	50.0448162	19.9621086
Józefińska	50.0450343	19.9567768
Benedyktyńska	50.0200806	19.8018984
Dąbrowa	50.0187311	19.8424590
Tyniecka	50.0514410	19.9242480
Tyniecka	50.0287888	19.8521421
Bolesława Śmiałego	50.0157105	19.8090909
Bogucianka	50.0126867	19.8107231
Jana Brożka	50.0304260	19.9264414
Zachodnia	50.0246276	19.9083112
Norymberska	50.0363215	19.8979275
Zygmunta Miłkowskiego	50.0274847	19.9203511
Kamieniarska	50.0308478	19.9133473
Zygmunta Miłkowskiego	50.0281298	19.9178672
Słomiana	50.0440633	19.9254740
Komandosów	50.0454675	19.9299418
Kapelanka	50.0453576	19.9227061
Szwedzka	50.0440545	19.9273011
Władysława Mitkowskiego	50.0461303	19.9266944
Dworska	50.0454825	19.9292045
Barska	50.0436768	19.9341757
Ruczaj	50.0251845	19.9239062
Strąkowa	50.0258770	19.9247790
Podhalańska	50.0217283	19.9173692
Turonia	50.0247289	19.9222668
Zbrojarzy	50.0184610	19.9309986
Juliana Ursyna Niemcewicza	50.0181263	19.9266534
Zdunów	50.0210197	19.9198223
Rynek Fałęcki	50.0180029	19.9234066
Chłodna	50.0184309	19.9252935
Chłodna	50.0180764	19.9264238
Tęczowa	50.0180952	19.9248510
Dekarzy	50.0214431	19.9214713
Pastelowa	50.0251509	19.9148912
Turonia	50.0259379	19.9222186
Michała Bałuckiego	50.0500991	19.9263027
Barska	50.0509424	19.9297120
Adolfa Nowaczyńskiego	50.0475321	19.9196325
Czarodziejska	50.0489975	19.9143955
Dąbrowa	50.0186244	19.8423843
Dąbrowa	50.0172001	19.8417655
Kozienicka	50.0064469	19.8476058
Kozienicka	50.0063950	19.8509591
Podgórki Tynieckie	50.0092132	19.8414250
Plac Mariacki	50.0618516	19.9398414
Władysława Ludwika Anczyca	50.0535122	19.9107719
Świętej Anny	50.0626145	19.9321624
Szewska	50.0620543	19.9362055
Szczepańska	50.0638581	19.9342788
Wiślna	50.0608787	19.9350565
Bracka	50.0610122	19.9366444
Wielopole	50.0577185	19.9458598
Stolarska	50.0600358	19.9392303
Pijarska	50.0653919	19.9373477
Mikołaja Kopernika	50.0611550	19.9457226
Strzelecka	50.0644255	19.9501929
Iwony Borowickiej	50.0662668	19.9571441
Zygmunta Augusta	50.0655667	19.9504701
Botaniczna	50.0645502	19.9549174
Gołębia	50.0608184	19.9342610
Gontyna	50.0529289	19.9112594
Aleja Jerzego Waszyngtona	50.0532489	19.9068294
Bolesława Komorowskiego	50.0538947	19.9203657
Rotmistrza Zbigniewa Dunin-Wąsowicza	50.0580922	19.9254356
Włóczków	50.0560246	19.9240244
Michała Stachowicza	50.0551002	19.9217533
Filarecka	50.0567327	19.9194465
Salwatorska	50.0545352	19.9152294
Leona Wyczółkowskiego	50.0569329	19.9142900
Dojazdowa	50.0529826	19.9215101
Emaus	50.0555477	19.9098411
Diabelski Most	50.0533145	19.9010999
Aleja Jerzego Waszyngtona	50.0532497	19.9028545
Kupa	50.0512743	19.9463382
Jonatana Warszauera	50.0525991	19.9460858
Izaaka	50.0513948	19.9459164
Jakuba	50.0529425	19.9463106
Ciemna	50.0517722	19.9472605
Henryka Siemiradzkiego	50.0687960	19.9290419
Grodzka	50.0596585	19.9377646
Senacka	50.0577114	19.9385014
Plac Dominikański	50.0591129	19.9382773
Świętego Jana	50.0637366	19.9390162
Sławkowska	50.0648200	19.9383633
Krupnicza	50.0628572	19.9260219
Studencka	50.0626126	19.9311991
Kapucyńska	50.0619339	19.9311740
Igrców	50.0626560	19.9039208
Daniela Chodowieckiego	50.0648551	19.9057129
Igrców	50.0630991	19.9032867
Witolda Budryka	50.0681804	19.9068388
Autostrada MS AGH	50.0681845	19.9092662
Władysława Łokietka	50.0842600	19.9237817
Lekarska	50.0865434	19.9392802
Stefana Jaracza	50.0842794	19.9447122
Zielińska	50.0959254	19.9319610
Białoprądnicka	50.0960436	19.9341922
Łukasza Górnickiego	50.0951983	19.9402645
Gabriela Narutowicza	50.0917980	19.9415555
Papiernicza	50.0922818	19.9410574
Bursztynowa	50.0912648	19.9468489
Jazowa	50.0911098	19.9427978
Bałtycka	50.0917797	19.9443279
Gabriela Narutowicza	50.0914301	19.9425331
Łobzowska	50.0696680	19.9326187
Garbarska	50.0658354	19.9349677
Słowiańska	50.0691028	19.9373801
Słowiańska	50.0692030	19.9372727
Krowoderska	50.0672243	19.9378965
Biskupia	50.0673217	19.9343551
Biskupia	50.0676100	19.9361335
Biskupia	50.0673625	19.9353089
Adama Asnyka	50.0667675	19.9348773
Basztowa	50.0661777	19.9353891
Sereno Fenn'a	50.0671146	19.9369986
Stefana Batorego	50.0670550	19.9303069
Świętej Teresy	50.0711958	19.9324317
Szlak	50.0701811	19.9328001
Rajska	50.0647087	19.9291429
Długa	50.0733669	19.9357999
Marii Konopnickiej	50.0505349	19.9310119
Józefa Dietla	50.0578740	19.9468124
Starowiślna	50.0586395	19.9431081
Stanisława Lentza	50.0842425	19.9091163
Władysława Łokietka	50.0778386	19.9294056
Władysława Łokietka	50.0835174	19.9249234
Sosnowiecka	50.0946205	19.8848848
Wojciecha Halczyna	50.0804097	19.9038092
Młodej Polski	50.0736798	19.9013952
Królowej Jadwigi	50.0562464	19.9038213
Królowej Jadwigi	50.0571965	19.9016185
Świętego Filipa	50.0677699	19.9420025
Aleja Kasztanowa	50.0662714	19.8588370
Świerkowa	50.0624872	19.8640697
Aleja Modrzewiowa	50.0612459	19.8646301
Basztowa	50.0659481	19.9369216
Podzamcze	50.0551411	19.9340957
Podzamcze	50.0553579	19.9371398
Wielicka	50.0263600	19.9772088
Piastowska	50.0705223	19.9041742
Piastowska	50.0716360	19.9046936
Piastowska	50.0695116	19.9038042
Piastowska	50.0678243	19.9032135
28 Lipca 1943	50.0643028	19.8753273
Jodłowa	50.0491783	19.8688722
Samuela Bogumiła Lindego	50.0791600	19.8753337
Marszałka Mikołaja Wolskiego	50.0474927	19.8243935
Józefa Wybickiego	50.0838179	19.9260456
Oboźna	50.0778910	19.9277786
Cieszyńska	50.0748436	19.9303099
Na Błonie	50.0785550	19.8804691
Na Błonie	50.0810080	19.8833316
Na Błonie	50.0806803	19.8852878
Balicka	50.0813420	19.8839653
Piotra Borowego	50.0643412	19.8902966
Podłużna	50.0680972	19.8466128
Chełmska	50.0677154	19.8467885
Olszanicka	50.0678437	19.8464789
Chełmska	50.0678435	19.8471245
Chełmska	50.0679605	19.8473727
Olszanicka	50.0678774	19.8464765
Olszanicka	50.0681587	19.8437266
Chełmska	50.0677192	19.8468934
Chełmska	50.0647657	19.8415363
Podłużna	50.0681309	19.8467489
Podłużna	50.0729385	19.8481002
Rondo im. Żołnierzy Wyklętych	50.0742378	19.9289878
Mazowiecka	50.0773360	19.9199838
Mazowiecka	50.0740207	19.9291462
Świętokrzyska	50.0744499	19.9291688
Świętokrzyska	50.0755023	19.9295496
Świętokrzyska	50.0744715	19.9290904
Mazowiecka	50.0740577	19.9292194
Rynek Kleparski	50.0673517	19.9409686
Plac Jana Matejki	50.0664702	19.9423272
Plac Jana Matejki	50.0665801	19.9421352
Świętego Rafała Kalinowskiego	50.0704179	19.9451906
Pędzichów	50.0711131	19.9390001
Pędzichów	50.0715555	19.9391953
Zygmunta Wróblewskiego	50.0696453	19.9390121
Ambrożego Grabowskiego	50.0669855	19.9275781
Bosacka	50.0651076	19.9492018
Bosacka	50.0665399	19.9495376
Stanisława Przybyszewskiego	50.0782995	19.8972819
Filtrowa	50.0779932	19.8782265
Zygmunta Starego	50.0776695	19.8765209
Włodzimierza Tetmajera	50.0864234	19.8800826
Majora Łupaszki	50.0907896	19.8648195
Tadeusza Boya-Żeleńskiego	50.0866735	19.8801540
Władysława Żeleńskiego	50.0906787	19.8783936
Włodzimierza Tetmajera	50.0919078	19.8654146
Krowoderskich Zuchów	50.0839335	19.9306887
Rusznikarska	50.0853552	19.9270175
Bronowicka	50.0792451	19.8970675
Bolesława Prusa	50.0573934	19.9163649
Aleja Marszałka Ferdinanda Focha	50.0567913	19.9064954
Aleja Marszałka Ferdinanda Focha	50.0568425	19.9067915
Piastowska	50.0589369	19.8991397
Śląska	50.0748280	19.9323664
Zakopiańska	49.9931452	19.9176147
Rondo Andrzeja Pamuły	50.0005927	19.9447256
Podmokła	50.0055289	19.9441911
Zbigniewa Herberta	50.0141360	19.9452565
Węzeł Łagiewnicki Adama Sapiehy	50.0008158	19.9400513
Zbigniewa Herberta	50.0014394	19.9407055
Zbigniewa Herberta	50.0013348	19.9404421
Zbigniewa Herberta	50.0021682	19.9412571
Węzeł Łagiewnicki Adama Sapiehy	50.0022026	19.9397743
Elżbiety Drużbackiej	49.9763396	19.9880371
Marii Konopnickiej	50.0371978	19.9399885
Józefa Friedleina	50.0768424	19.9314413
Plac Teodora Axentowicza	50.0717428	19.9248015
Kujawska	50.0738038	19.9231142
Aleja Artura Grottgera	50.0741032	19.9239971
Miechowska	50.0666667	19.9142195
Kamienna	50.0773843	19.9467273
Zdrowa	50.0875842	19.9454412
Henryka Pachońskiego	50.0932830	19.9214733
Aleja 29 Listopada	50.0978803	19.9622459
Kocmyrzowska	50.0951139	20.0648923
Nowohucka	50.0663492	20.0040926
Nowohucka	50.0563540	20.0005464
Nowohucka	50.0519605	19.9880641
Ofiar Dąbia	50.0518339	19.9786476
Portowa	50.0511225	19.9785028
Prądnicka	50.0741642	19.9361325
Władysława Reymonta	50.0640205	19.9226114
Akademicka	50.0659191	19.9171335
Akademicka	50.0653495	19.9167990
Toruńska	50.0687678	19.9105001
Wadowicka	50.0291005	19.9366683
Prądnicka	50.0847262	19.9380481
Prądnicka	50.0823601	19.9376443
Prądnicka	50.0819772	19.9375755
Żabiniec	50.0822266	19.9463341
Leśna	50.0614858	19.8706312
Aleja Kasy Oszczędności Miasta Krakowa	50.0564014	19.8540721
Jeleniowa	50.0610468	19.8688859
Przegorzalska	50.0481508	19.8723849
Starowolska	50.0605035	19.8710097
Jodłowa	50.0541147	19.8722111
Jeleniowa	50.0616742	19.8669281
Katowicka	50.0826293	19.8876788
Wernyhory	50.0824537	19.8892577
Jabłonkowska	50.0821459	19.8880180
Balicka	50.0823843	19.8870992
Stawowa	50.0958566	19.8876346
Jasnogórska	50.0966784	19.8909489
Józefa Chełmońskiego	50.0999769	19.8870518
Ludwika Solskiego	50.0854183	19.9457722
Andrzeja Frycza-Modrzewskiego	50.0867951	19.9463412
Siewna	50.0940252	19.9518167
Józefa Łepkowskiego	50.0923594	19.9632245
Rybianka	50.0918540	19.9595275
Bolesława Czerwieńskiego	50.0854914	19.9035919
B3	50.1059720	19.9825020
Strzelców	50.0941746	19.9756662
Lublańska	50.0853534	19.9584768
Opolska	50.0865584	19.9522021
Czarnowiejska	50.0657726	19.9239836
Półłanki	50.0532313	20.0497699
Szparagowa	50.0449918	20.0450449
Jerzego Giedroycia	50.0643513	20.0816329
Nowohucka	50.0566927	20.0010460
Stanisławy Dowgiałło	50.0535151	20.0491381
Rzepakowa	50.0695973	20.1514057
Wyciąska	50.0706151	20.1622966
Adama Staszczyka	50.0757962	19.9041855
Sołtysa Dytmara	50.0802563	19.8923215
Jadwigi z Łobzowa	50.0750032	19.8999306
Cicha	50.0753417	19.8994608
Półłanki	50.0515770	20.0498025
Plac Teodora Axentowicza	50.0720244	19.9259715
Teofila Lenartowicza	50.0696797	19.9282558
Gzymsików	50.0723107	19.9289045
Henryka Sienkiewicza	50.0738797	19.9284707
Henryka Sienkiewicza	50.0711690	19.9263652
Loretańska	50.0630382	19.9303250
Garncarska	50.0601188	19.9276321
Studencka	50.0624522	19.9290221
Czysta	50.0638601	19.9272068
Krupnicza	50.0635020	19.9314577
Krupnicza	50.0634494	19.9286222
Profesora Michała Bobrzyńskiego	50.0258047	19.9035826
Zakopiańska	49.9895947	19.9158539
Księcia Józefa	50.0490451	19.9032702
Wielicka	50.0040698	20.0221627
Wielicka	50.0047904	20.0209386
Wielicka	50.0048684	20.0203984
Wielicka	50.0056764	20.0189191
Nawojki	50.0678077	19.9140603
Tytusa Czyżewskiego	50.0814690	19.9105586
Jesionowa	50.0703144	19.8766331
Zakliki z Mydlnik	50.0778430	19.8485767
Balicka	50.0837425	19.8469764
Stanisława Konarskiego	50.0670487	19.9203834
Tadeusza Kościuszki	50.0527766	19.9155297
Tadeusza Kościuszki	50.0527616	19.9161260
Wodociągowa	50.0511909	19.8954245
Skarbowa	50.0634252	19.9267247
Wenecja	50.0614341	19.9261541
Retoryka	50.0579475	19.9281511
Marszałka Józefa Piłsudskiego	50.0594627	19.9267257
Czesława Miłosza	50.0762913	19.9473386
Aleksandra Lubomirskiego	50.0668293	19.9586363
Wita Stwosza	50.0719680	19.9479888
Wita Stwosza	50.0681500	19.9514552
Wita Stwosza	50.0685294	19.9507278
Wita Stwosza	50.0720910	19.9481062
Wita Stwosza	50.0700449	19.9493743
Aleksandra Lubomirskiego	50.0678189	19.9529618
Wita Stwosza	50.0680592	19.9522027
Wita Stwosza	50.0731817	19.9470325
Wita Stwosza	50.0739258	19.9461241
Aleksandra Lubomirskiego	50.0676431	19.9535909
Czesława Miłosza	50.0757878	19.9471609
Czesława Miłosza	50.0744365	19.9459715
Pawia	50.0647223	19.9449648
Rakowicka	50.0771293	19.9591360
Bohdana Zaleskiego	50.0679808	19.9599009
Olszyny	50.0727847	19.9653115
Szlak	50.0704314	19.9436066
Szlak	50.0704793	19.9447193
Ogrodowa	50.0685677	19.9447858
Zacisze	50.0668081	19.9435701
Bosacka	50.0677344	19.9499158
Topolowa	50.0672660	19.9504466
Topolowa	50.0666789	19.9540165
Wenecja	50.0603515	19.9272086
Mydlnicka	50.0631250	19.9026683
Hamernia	50.0683802	19.8874516
Generała Tadeusza Bora-Komorowskiego	50.0854679	19.9748699
Generała Tadeusza Bora-Komorowskiego	50.0853161	19.9753228
Rondo Polsadu	50.0851741	19.9715299
Lublańska	50.0887111	19.9732690
Rondo Polsadu	50.0853143	19.9709167
Młyńska	50.0847454	19.9704457
Dobrego Pasterza	50.0890579	19.9733737
Dobrego Pasterza	50.0889490	19.9730349
Dobrego Pasterza	50.0889782	19.9727857
Strzelców	50.0895753	19.9737852
Powstańców	50.0915511	19.9604286
Powstańców	50.0982213	19.9733981
Dobrego Pasterza	50.0892901	19.9750284
Macieja Miechowity	50.0838698	19.9701281
Stanisława ze Skalbmierza	50.0804392	19.9688490
Olszyny	50.0730996	19.9656321
Olszyny	50.0733423	19.9658656
Rusznikarska - Deptak	50.0856861	19.9282685
Stanisława Grochowiaka	50.0931516	19.9249283
Stanisława Grochowiaka	50.0936219	19.9243603
Rusznikarska - Deptak	50.0848026	19.9283437
Józefa Chełmońskiego	50.0967718	19.8944627
Józefa Chełmońskiego	50.0983806	19.8903441
Józefa Chełmońskiego	50.0982831	19.8906542
Generała Józefa Olszyny-Wilczyńskiego	50.0915171	19.9068582
Pękowicka	50.0933899	19.9173444
Józefa Chełmońskiego	50.0906712	19.9052973
Stelmachów	50.0948501	19.9091037
Generała Wojciecha Kiwerskiego	50.0942460	19.9064800
Józefa Chełmońskiego	50.0900658	19.9067052
Olszanicka	50.0613419	19.8094593
Olszanicka	50.0615975	19.8074119
Rogatka	50.0783887	19.9485090
Rogatka	50.0795144	19.9476794
Rogatka	50.0793140	19.9479061
Mariana Langiewicza	50.0791033	19.9463239
Antoniego Józefa Madalińskiego	50.0521181	19.9277682
Szwedzka	50.0505869	19.9220065
Tyniecka	50.0419241	19.9027376
Odlewnicza	50.0704121	19.9002995
Odlewnicza	50.0703331	19.9001495
Starowiślna	50.0560900	19.9457857
Mogilska	50.0660173	19.9620371
Mogilska	50.0667202	19.9700349
Barska	50.0435254	19.9348780
Aleja Juliusza Słowackiego	50.0732834	19.9440638
Izydora Stella-Sawickiego	50.0761026	20.0018941
Izydora Stella-Sawickiego	50.0752428	20.0029931
Józefa Dietla	50.0586346	19.9478786
Ofiar Dąbia	50.0546363	19.9761515
Aleja Pokoju	50.0669776	20.0049738
Nowohucka	50.0573463	20.0019900
Józefa Dietla	50.0517671	19.9416478
Aleja Ignacego Daszyńskiego	50.0584886	19.9505377
Zabłocie	50.0499214	19.9633927
Bolesława Limanowskiego	50.0426265	19.9606353
Aleja Powstańców Śląskich	50.0421813	19.9609597
Wielicka	50.0264686	19.9772246
Na Zjeździe	50.0484507	19.9541552
Ujastek Mogilski	50.0743492	20.0629529
Aleja Jana Pawła II	50.0714599	20.0371803
Aleja Jana Pawła II	50.0717662	20.0357832
Władysława Łokietka	50.0885308	19.9203841
Władysława Łokietka	50.0873108	19.9218791
Generała Augusta Fieldorfa-Nila	50.0884209	19.9330327
Bolesława Czuchajowskiego	50.0783049	20.0298095
Brzeska	50.0495202	20.2123222
Katowicka	50.0841268	19.8836200
Reduta	50.0990635	19.9743044
Reduta	50.0999038	19.9737648
Reduta	50.0997024	19.9738910
Reduta	50.0994980	19.9740235
Zygmunta Glogera	50.0989167	19.9298561
Josepha Conrada	50.0895287	19.9072303
Josepha Conrada	50.0895467	19.9061173
Josepha Conrada	50.0894516	19.9071153
Josepha Conrada	50.0894442	19.9074064
Kazimierza Wyki	50.0923353	19.9223963
Kazimierza Wyki	50.0916708	19.9226344
Gaik	50.1084814	19.8779865
Jordanowska	50.0950390	19.9116941
Jordanowska	50.0952320	19.9124262
Zwycięstwa	50.0634977	19.9794710
Zwycięstwa	50.0632430	19.9786707
Aleja 29 Listopada	50.0805345	19.9505521
Aleja 29 Listopada	50.0805103	19.9506531
Aleja 29 Listopada	50.0810374	19.9510254
Doktora Twardego	50.0822868	19.9348780
Doktora Twardego	50.0822792	19.9347526
Doktora Twardego	50.0818327	19.9351748
Legionów Józefa Piłsudskiego	50.0448709	19.9455819
Legionów Józefa Piłsudskiego	50.0443307	19.9463611
Legionów Józefa Piłsudskiego	50.0445118	19.9459988
Karola Rollego	50.0441616	19.9431609
Przy Moście	50.0450268	19.9460663
Staromostowa	50.0452793	19.9474743
Kalwaryjska	50.0368678	19.9410272
Bolesława Limanowskiego	50.0450505	19.9537951
Bolesława Limanowskiego	50.0450070	19.9519559
Rynek Podgórski	50.0445084	19.9484555
Rondo Antoniego Matecznego	50.0364725	19.9409473
Rondo Antoniego Matecznego	50.0366657	19.9404758
Rondo Antoniego Matecznego	50.0366596	19.9406999
Hieronima Wietora	50.0467185	19.9410221
Rybaki	50.0456661	19.9424346
Bolesława Limanowskiego	50.0432941	19.9595618
Bolesława Limanowskiego	50.0451364	19.9557391
Kocmyrzowska	50.0835790	20.0354032
Kocmyrzowska	50.0857971	20.0396399
Klasztorna	50.0581214	20.0505132
Półłanki	50.0472008	20.0479118
Kotlarska	50.0536724	19.9603568
Staromostowa	50.0448885	19.9482767
Kazimierza Brodzińskiego	50.0453766	19.9481019
Węgierska	50.0442757	19.9510084
Nadwiślańska	50.0459980	19.9491143
Plac Bohaterów Getta	50.0463635	19.9545115
Krakusa	50.0471386	19.9526342
Igołomska	50.0802576	20.1876685
Stoczniowców	50.0498574	19.9805435
Księdza Józefa Tischnera	50.0288223	19.9378841
Księdza Józefa Tischnera	50.0308275	19.9451064
Jana Brożka	50.0291771	19.9366157
Aleksandra Fredry	50.0284130	19.9409567
Aleja Powstańców Śląskich	50.0343141	19.9471833
Stanisława Staszica	50.0708885	19.9331032
Oskara Kolberga	50.0717239	19.9344213
Jerzego Żuławskiego	50.0725163	19.9347456
Lubelska	50.0741591	19.9333221
Krzywa	50.0675979	19.9391020
Krótka	50.0679970	19.9398469
Rondo Krzysztofa Kozłowskiego	50.0689100	19.9494813
Wita Stwosza	50.0688366	19.9496823
Świętego Rafała Kalinowskiego	50.0699419	19.9460361
Świętego Rafała Kalinowskiego	50.0693270	19.9476076
Świętego Rafała Kalinowskiego	50.0692691	19.9475267
Świętego Rafała Kalinowskiego	50.0689697	19.9492638
Wita Stwosza	50.0705006	19.9490749
Świętego Rafała Kalinowskiego	50.0690848	19.9492598
Świętego Krzyża	50.0622171	19.9425275
Świętego Marka	50.0646663	19.9369586
Świętego Krzyża	50.0632710	19.9430264
Śląska	50.0752022	19.9320483
Zakopiańska	50.0204640	19.9321416
Zakopiańska	50.0210076	19.9324185
Jana Brożka	50.0303705	19.9276884
Marii Konopnickiej	50.0412498	19.9358771
Marii Konopnickiej	50.0383078	19.9384683
Marii Konopnickiej	50.0412756	19.9359719
Marii Konopnickiej	50.0416596	19.9357000
Aleja Lipowa	50.0191964	19.8036314
Pomorska	50.0707608	19.9250412
Józefitów	50.0699576	19.9234292
Juliusza Lea	50.0734409	19.8889140
Plac Inwalidów	50.0697171	19.9243741
Fryderyka Chopina	50.0680621	19.9195145
Stanisława Konarskiego	50.0691300	19.9208196
Stanisława Konarskiego	50.0705453	19.9213866
Jana Kochanowskiego	50.0657556	19.9281864
Piotra Michałowskiego	50.0664297	19.9285550
Jana Kochanowskiego	50.0667691	19.9260200
Jana Kochanowskiego	50.0663017	19.9273508
Aleja Juliusza Słowackiego	50.0694082	19.9268754
Aleja Adama Mickiewicza	50.0692377	19.9263143
Aleja Zygmunta Krasińskiego	50.0589638	19.9250800
Aleja Adama Mickiewicza	50.0600164	19.9249021
Jana Sobieskiego	50.0685343	19.9310271
Kremerowska	50.0676954	19.9298530
Reformacka	50.0648071	19.9367937
Karola Olszewskiego	50.0602465	19.9338396
Szczepańska	50.0630745	19.9362276
Pijarska	50.0647857	19.9400257
Pijarska	50.0649282	19.9394601
Poselska	50.0579459	19.9358517
Senacka	50.0577913	19.9373928
Kanonicza	50.0562819	19.9372327
Droga do Zamku	50.0543143	19.9382824
Sienna	50.0612633	19.9384072
Józefa Szujskiego	50.0640834	19.9290922
Aleja Adama Mickiewicza	50.0613109	19.9239399
Aleja Adama Mickiewicza	50.0609956	19.9241634
Napoleona Cybulskiego	50.0619006	19.9266791
Plac Generała Władysława Sikorskiego	50.0610167	19.9287084
Loretańska	50.0614958	19.9305194
Plac Generała Władysława Sikorskiego	50.0612796	19.9283583
Czapskich	50.0606123	19.9300704
Kadrówki	50.0607731	19.9220004
Mały Rynek	50.0612641	19.9401474
Mikołajska	50.0614154	19.9413346
Plac Świętej Marii Magdaleny	50.0568115	19.9378458
Smoleńsk	50.0591206	19.9311246
Felicjanek	50.0586775	19.9294132
Mała	50.0576679	19.9305422
Wygoda	50.0571844	19.9279826
Kazimierza Morawskiego	50.0565890	19.9283165
Kazimierza Morawskiego	50.0562501	19.9273607
Kazimierza Morawskiego	50.0559049	19.9260910
Emila Zegadłowicza	50.0580057	19.9291141
Tarłowska	50.0570139	19.9318896
Tenczyńska	50.0572850	19.9318935
Plac Na Groblach	50.0560298	19.9330664
Plac Na Groblach	50.0568456	19.9332631
Plac Na Groblach	50.0560579	19.9320241
Aleja Zygmunta Krasińskiego	50.0568558	19.9266250
Aleja Zygmunta Krasińskiego	50.0576264	19.9261700
Plac Szczepański	50.0634876	19.9352152
Świętego Tomasza	50.0644279	19.9347321
Jagiellońska	50.0613934	19.9339930
Gołębia	50.0604204	19.9355379
Wiślna	50.0603282	19.9345945
Rynek Kleparski	50.0666827	19.9399811
Ignacego Jana Paderewskiego	50.0665744	19.9414950
Floriana Straszewskiego	50.0612203	19.9320976
Monte Cassino	50.0455003	19.9217032
Księcia Józefa	50.0510115	19.9079267
Astronomów	50.0532920	19.8276165
Do Obserwatorium	50.0535533	19.8266066
Zaułek Książąt Czartoryskich	50.0649026	19.9408240
Kukułcza	50.0594092	19.8627839
Aleja Kasy Oszczędności Miasta Krakowa	50.0587646	19.8619636
Aleja Jerzego Waszyngtona	50.0531709	19.8939175
Biskupa Józefa Gawliny	50.0908171	19.9061371
Macieja Kalenkiewicza	50.0911482	19.9058795
Generała Tadeusza Pełczyńskiego	50.0942440	19.9075610
Alojzego Kaczmarczyka	50.0945027	19.9070947
Waleriana Tumanowicza	50.0932818	19.9074014
Owsiana	50.0933125	19.9149920
Palmowa	50.0894802	19.8811619
Stawowa	50.0975777	19.8807584
Stawowa	50.0985338	19.8764313
Budrysów	50.1005893	19.8831599
Szarotki	50.1002581	19.8807009
Pijarska	50.0646507	19.9419047
Kącik	50.0471881	19.9548763
Śliska	50.0394317	19.9413605
Wadowicka	50.0352592	19.9398042
Biskupa Franciszka Hodura	50.0321072	19.9440546
Grzybki	50.0334292	19.9438684
Głogowska	50.0327055	19.9444982
Łagiewnicka	50.0344360	19.9434062
Sucha	50.0240299	19.9383244
Malutka	50.0268062	19.9391204
Harcerska	50.0245879	19.9409374
Juliana Goslara	50.0243605	19.9394132
Ferdynanda Kurasia	50.0257011	19.9382297
Włodarska	50.0252584	19.9405861
Lechicka	50.0244492	19.9370159
Pasieczna	50.0248425	19.9363750
Sucha	50.0234574	19.9349380
Urocza	50.0263090	19.9388116
Harcmistrza Stanisława Millana	50.0178786	19.9427626
Siostry Faustyny	50.0193477	19.9403125
Siostry Faustyny	50.0183625	19.9425016
Ratajska	50.0213586	19.9394304
Strumienna	50.0206810	19.9440786
Sowia	50.0222450	19.9381443
Pocztowa	50.0204680	19.9394983
Księdza Józefa Tischnera	50.0334255	19.9463265
Jerzego Turowicza	50.0278215	19.9445967
Księdza Józefa Tischnera	50.0299728	19.9450450
Jerzego Turowicza	50.0288464	19.9446521
Ogrodniki	50.0268118	19.9357338
Przy Torze	50.0267879	19.9376557
Na Grządkach	50.0271269	19.9369278
Przegorzalska	50.0493739	19.8737853
Na Błonie	50.0806819	19.8810063
Mieszka I	50.0796012	19.9623342
Brogi	50.0799801	19.9611727
Henryka Wieniawskiego	50.0795122	19.9690171
Henryka Wieniawskiego	50.0817646	19.9641549
Kanonierów	50.0810735	19.9664227
Dobra	50.0799133	19.9639541
Rakowicka	50.0786064	19.9602426
Bolesława Chrobrego	50.0757917	19.9614953
Droga nad Białuchą	50.0746247	19.9638137
Mikołaja Kopernika	50.0621186	19.9494798
Kąpielowa	49.9992353	19.9208178
Kazimierza Moszyńskiego	49.9911718	19.9309576
Węzeł Łagiewnicki Adama Sapiehy	50.0009460	19.9350964
Podmokła	50.0057899	19.9442678
Cechowa	50.0047230	19.9631355
Podmokła	50.0055635	19.9426707
Kąpielowa	49.9966276	19.9268537
Kąpielowa	49.9952652	19.9299367
Mirosława Krzyżańskiego	49.9725481	19.9471784
Podmokła	50.0073828	19.9367271
Podmokła	50.0076590	19.9362497
Podmokła	50.0063680	19.9396286
Podmokła	50.0051723	19.9432623
Stanisława Stojałowskiego	50.0054446	19.9444947
Węzeł Łagiewnicki Adama Sapiehy	50.0013295	19.9432922
Warszawska	50.0732501	19.9448580
Ptasia	50.0778996	19.9649861
Ptasia	50.0790992	19.9612556
Macieja Miechowity	50.0832572	19.9639378
Artura Malawskiego	50.0826160	19.9644894
Artura Malawskiego	50.0815874	19.9665299
Jaśminowa	50.0808743	19.9648399
Partyzantów	50.0803839	19.9643728
Andrzeja Sokołowskiego	50.0791708	19.9682055
Piękna	50.0795475	19.9677792
Wileńska	50.0812100	19.9557663
Czerwonego Prądnika	50.0803793	19.9577632
Bolesława Chrobrego	50.0745774	19.9596288
Domki	50.0753847	19.9591209
Księdza Ignacego Jana Skorupki	50.0759378	19.9596988
Na Wiankach	50.0768055	19.9611189
Ludwika Idzikowskiego	50.0770124	19.9601004
Władysława Jaworskiego	50.0763643	19.9605731
Bolesława Chrobrego	50.0761619	19.9670821
Ignacego Łukasiewicza	50.0753931	19.9651372
Zielone Wzgórze	50.1072160	19.9337277
Zielone Wzgórze	50.1078337	19.9279982
Saperów	50.0793989	19.9640718
Szwoleżerów	50.0795124	19.9633195
Floriana Straszewskiego	50.0571374	19.9339806
Józefa Rostafińskiego	50.0684482	19.9050168
Na Gródku	50.0608042	19.9420857
Reduta	50.1001469	19.9736216
Batowicka	50.1027794	19.9774034
Ostatnia	50.0698587	19.9776176
Strzelców	50.0957102	19.9743949
Strzelców	50.0951526	19.9747496
Plac Inwalidów	50.0694613	19.9256746
Tadeusza Pawlikowskiego	50.0674941	19.9272192
Koletek	50.0521421	19.9388570
Świętej Agnieszki	50.0528501	19.9402088
Sukiennicza	50.0513225	19.9379340
Ludwinowska	50.0428112	19.9354530
Ludwinowska	50.0441330	19.9402352
Ludwinowska	50.0436553	19.9409196
Barska	50.0437974	19.9362383
Plac Emila Serkowskiego	50.0430885	19.9434016
Przedwiośnie	50.0419545	19.9379451
Orawska	50.0408801	19.9383554
Spiska	50.0417498	19.9388736
Ignacego Krasickiego	50.0401484	19.9396133
Generała Tadeusza Kutrzeby	50.0409790	19.9409412
Stanisława Smolki	50.0417425	19.9421509
Tadeusza Czackiego	50.0410610	19.9370721
Szaflarska	50.0412518	19.9375348
Władysława Warneńczyka	50.0425619	19.9457411
Augustyna Kordeckiego	50.0496940	19.9376686
Librowszczyzna	50.0591168	19.9456446
Mikołaja Zyblikiewicza	50.0604854	19.9442564
Bonerowska	50.0590899	19.9465512
Mikołaja Zyblikiewicza	50.0597521	19.9464806
Blich	50.0593381	19.9481319
Marii Skłodowskiej-Curie	50.0628505	19.9459407
Podbrzezie	50.0527925	19.9441984
Berka Joselewicza	50.0539720	19.9453737
Bożego Ciała	50.0492447	19.9444969
Trynitarska	50.0474959	19.9444271
Bonifraterska	50.0479655	19.9449975
Mostowa	50.0480982	19.9456219
Bocheńska	50.0486939	19.9457040
Plac Wolnica	50.0487889	19.9441156
Beera Meiselsa	50.0513544	19.9441186
Miodowa	50.0517875	19.9427049
Estery	50.0524682	19.9449364
Plac Nowy	50.0518299	19.9447978
Nowa	50.0510337	19.9448315
Szeroka	50.0528501	19.9477751
Szeroka	50.0529121	19.9480539
Lewkowa	50.0523756	19.9477695
Adama Chmielowskiego	50.0462818	19.9420612
Augustiańska	50.0480094	19.9423886
Paulińska	50.0498836	19.9400982
Świętej Katarzyny	50.0499396	19.9420890
Skałeczna	50.0493508	19.9423981
Skałeczna	50.0491040	19.9412761
Piekarska	50.0481774	19.9408957
Wojciecha Bogusławskiego	50.0561632	19.9424239
Wrzesińska	50.0568247	19.9469847
Michała Siedleckiego	50.0543310	19.9527695
Michała Siedleckiego	50.0550902	19.9502611
Michała Siedleckiego	50.0551482	19.9521948
Księdza Franciszka Blachnickiego	50.0553061	19.9539456
Halicka	50.0513025	19.9523628
Przemyska	50.0518930	19.9510209
Rzeszowska	50.0528080	19.9499705
Starowiślna	50.0526939	19.9491862
Węgłowa	50.0487622	19.9426334
Józefa Sarego	50.0565260	19.9425939
Skwerowa	50.0510076	19.9236232
Dębowa	50.0476187	19.9269010
Konfederacka	50.0484174	19.9283246
Edmunda Wasilewskiego	50.0489928	19.9286853
Skwerowa	50.0491315	19.9262328
Skwerowa	50.0488732	19.9262729
Skwerowa	50.0482713	19.9272545
Zduńska	50.0507431	19.9297695
Zduńska	50.0509472	19.9300021
Powroźnicza	50.0521399	19.9289244
Zamkowa	50.0521247	19.9309225
Sandomierska	50.0517369	19.9309620
Jaworowa	50.0486537	19.9201858
Biała Droga	50.0490896	19.9209470
Dębnicka	50.0484176	19.9222598
Flisacka	50.0524826	19.9182341
Marcina Borelowskiego-Lelewela	50.0540282	19.9234068
Józefa Kałuży	50.0577728	19.9228541
Senatorska	50.0552381	19.9209473
Józefa Ignacego Kraszewskiego	50.0559473	19.9190967
Juliana Fałata	50.0565747	19.9161077
Plac Świętego Ducha	50.0638289	19.9427607
Felicjanek	50.0572516	19.9295581
Bożego Miłosierdzia	50.0586756	19.9296839
Smoleńsk	50.0584207	19.9272451
Kazimierza Morawskiego	50.0564301	19.9277165
Jabłonowskich	50.0611244	19.9310025
Bulwar Rodła	50.0533190	19.9235425
Bulwar Czerwieński	50.0548926	19.9293166
Bulwar Inflancki	50.0498238	19.9351312
Bulwar Kurlandzki	50.0481072	19.9491399
Podole	50.0208235	19.8809061
Aleja Do Kopca	50.0594622	19.8461638
Pod Sowińcem	50.0563154	19.8420510
Aleja Pustelnika	50.0532211	19.8453474
Aleja Żubrowa	50.0543894	19.8543078
Aleja Jerzego Waszyngtona	50.0562558	19.8725900
Aleja Jerzego Waszyngtona	50.0575349	19.8752385
Świętej Bronisławy	50.0528716	19.9123202
Aleja Mieczysława Małeckiego	50.0550998	19.8961661
Vlastimila Hofmana	50.0569942	19.8968778
Emaus	50.0571817	19.9056962
Skwer Brora Hanssona	50.0612725	19.9282856
Tyniecka	50.0505746	19.9137457
Tyniecka	50.0498827	19.9098355
Tyniecka	50.0508439	19.9186886
Tyniecka	50.0509130	19.9193213
Zagonów	50.0495098	19.9190908
Jana Pietrusińskiego	50.0457802	19.9110268
Aleja Elvisa Presleya	50.0417458	19.9090768
Jana Pietrusińskiego	50.0435059	19.9093554
Zielna	50.0436494	19.9140284
Zielna	50.0425427	19.9116054
Zielna	50.0364257	19.9071185
Praska	50.0452045	19.9062344
Tyniecka	50.0464211	19.9080981
Tadeusza Połomskiego	50.0192984	19.9439803
Chochołowska	50.0198784	19.9436528
Walerego Sławka	50.0286608	19.9587078
Nowosądecka	50.0138718	19.9659535
Wincentego Witosa	50.0138690	19.9652546
Generała Henryka Kamieńskiego	50.0286089	19.9587115
Generała Henryka Kamieńskiego	50.0245857	19.9790600
Jerzego Turowicza	50.0148401	19.9454845
Tadeusza Ptaszyckiego	50.0677046	20.0635847
Tadeusza Ptaszyckiego	50.0675159	20.0636182
Tadeusza Ptaszyckiego	50.0659970	20.0675647
Symfoniczna	50.0678180	19.9223070
Długa	50.0733287	19.9346442
Jana Kasprowicza	50.0683221	19.9656230
Grunwaldzka	50.0691250	19.9661372
Kielecka	50.0684517	19.9628831
Stefana Garczyńskiego	50.0698894	19.9645231
Juliana Konstantego Ordona	50.0703233	19.9639855
Filipa Eisenberga	50.0697075	19.9670298
Olimpijska	50.0653022	19.9046923
Maurycego Beniowskiego	50.0648963	19.9049428
Cichy Kącik	50.0648492	19.9045201
Ignacego Domeyki	50.0637812	19.9038564
Rynek Dębnicki	50.0516425	19.9266266
Racławicka	50.0739478	19.9186476
Kronikarza Galla	50.0724596	19.9138498
Warmijska	50.0723955	19.9070908
Adama Chmiela	50.0727682	19.9084274
Mariana Smoluchowskiego	50.0736675	19.9100655
Leopolda Staffa	50.0731565	19.9100437
Stanisława Skarbińskiego	50.0711807	19.9100382
Elbląska	50.0685518	19.9149627
Jana Karola Chodkiewicza	50.0561323	19.9537368
Masarska	50.0552161	19.9551149
Rzeźnicza	50.0562552	19.9565229
Sobótka	50.0155300	19.9442199
Do Sanktuarium Bożego Miłosierdzia	50.0169568	19.9406057
Myślenicka	49.9851547	19.9449050
Wadowicka	50.0350517	19.9396969
Aleja generała Jana Skrzyneckiego	50.0339032	19.9349511
Promowa	50.0211343	19.8035514
Bulwar Poleski	50.0515782	19.9310933
Hotelarzy	50.0736758	19.9990186
Żabiniec	50.0850400	19.9471890
Aleja Przyjaźni	50.0751856	20.0362843
Aleja Róż	50.0730565	20.0376604
Krzesławicka	50.0906983	19.9854327
Aliny	50.0904926	19.9811729
Harnasiów	50.0913372	19.9838424
Wiślicka	50.0936895	20.0059295
Wiślicka	50.0933158	20.0062162
Srebrnych Orłów	50.0936533	20.0070408
Piasta Kołodzieja	50.0951489	20.0128538
Jerzego Szajnowicza-Iwanowa	50.0833459	20.0251298
Jakuba Zachemskiego	50.0691136	20.0455343
Bulwarowa	50.0805439	20.0485149
Stanisława Wojciechowskiego	50.0818377	20.0488037
Klasztorna	50.0685411	20.0526056
Bulwarowa	50.0706251	20.0532820
Bulwar Lotników Alianckich	50.0512086	19.9596628
Targowa	50.0466952	19.9540334
Solna	50.0471369	19.9539696
Plac Bohaterów Getta	50.0471510	19.9543235
Lwowska	50.0456610	19.9564654
Romualda Traugutta	50.0461717	19.9577559
Generała Jana Henryka Dąbrowskiego	50.0448220	19.9592817
Bulwar Podolski	50.0494913	19.9548623
Józefińska	50.0454519	19.9543253
Bulwar Wołyński	50.0491739	19.9335838
Bulwar Kurlandzki	50.0507319	19.9542712
Księdza Kazimierza Siemaszki	50.0857211	19.9400307
Gazowa	50.0485471	19.9468904
Podgórska	50.0531457	19.9589147
Miedziana	50.0547096	19.9754468
Miedziana	50.0568567	19.9746771
Marszałka Edwarda Śmigłego-Rydza	50.0771053	20.0395040
Aleja generała Władysława Andersa	50.0870062	20.0071956
Obrońców Krzyża	50.0905450	20.0221358
Jacka Augustyna Łopackiego	50.0938206	20.0187450
Rondo Hipokratesa	50.0904151	20.0214176
Stanisława Mikołajczyka	50.0911372	20.0182869
Obrońców Krzyża	50.0903882	20.0220726
Tomasza Janiszewskiego	50.0869098	20.0104725
Srebrnych Orłów	50.0942264	20.0095778
Stanisława Mikołajczyka	50.0939704	20.0131670
Dąbska	50.0647143	19.9824225
Kosynierów	50.0653854	19.9779536
Świtezianki	50.0618276	19.9804894
Stanisława Jachowicza	50.0619765	19.9797564
Stanisława Jachowicza	50.0614965	19.9793495
Ofiar Dąbia	50.0591893	19.9752706
Jerzego Samuela Bandtkiego	50.0772239	19.8989879
Mieczysława Niedziałkowskiego	50.0727778	19.9042308
Altanowa	50.0734871	19.9033822
Zygmunta Starego	50.0810064	19.8507245
Nad Zalewem	50.0705263	19.8654871
Nad Zalewem	50.0686180	19.8643057
Zygmunta Starego	50.0767303	19.8640104
Brzegowa	50.0745859	19.8662342
Zakliki z Mydlnik	50.0819831	19.8483917
Zakliki z Mydlnik	50.0824179	19.8483471
Stanisława Mikołajczyka	50.0912994	20.0172782
Xawerego Dunikowskiego	50.0887675	20.0154211
Xawerego Dunikowskiego	50.0912663	20.0171069
Młynówka Królewska	50.0778438	19.8809965
Jerzego Szablowskiego	50.0765456	19.8950271
Młynówka Królewska	50.0768058	19.8846042
Młynówka Królewska	50.0742492	19.8983973
Zarzecze	50.0730202	19.8982739
Zarzecze	50.0741001	19.8944970
Aleja Artura Grottgera	50.0743222	19.9232861
Młynówka Królewska	50.0771869	19.9152498
Rzeczna	50.0745899	19.9233592
Wójtowska	50.0764829	19.9272183
Litewska	50.0763808	19.9260679
Kmieca	50.0765312	19.9221418
Edmunda Biernackiego	50.0730026	19.9245055
Stanisława Wyspiańskiego	50.0729691	19.9254586
Zbrojów	50.0734370	19.9225439
Aleja Artura Grottgera	50.0722432	19.9292028
Kościelna	50.0720809	19.9287251
Wacława Berenta	50.0718533	19.9277253
Kościelna	50.0721641	19.9273534
Młynówka Królewska	50.0760754	19.8874290
Jaxy Gryfity	50.0542429	19.9132217
Białe Wzgórze	50.0521026	19.9085245
Szczepana Humberta	50.0611131	19.9254385
Przegon	50.0569817	19.9042720
Emaus	50.0587316	19.9026680
Jacka Malczewskiego	50.0558238	19.9032081
Zaścianek	50.0550049	19.9035814
Zaścianek	50.0552279	19.9028819
Drożyna	50.0559998	19.9030693
Józefa Becka	50.0736271	19.8634683
Józefa Korzeniowskiego	50.0612480	19.8966692
Józefa Korzeniowskiego	50.0615169	19.8970226
Józefa Korzeniowskiego	50.0616943	19.8972244
Zarudawie	50.0707763	19.8779832
Nad Zalewem	50.0725923	19.8669881
Zarudawie	50.0679681	19.8868699
Słonecznikowa	50.0596438	19.8977917
Emaus	50.0605034	19.8986976
Emaus	50.0608224	19.8979066
Mlaskotów	50.0550390	19.9166450
Juliana Fałata	50.0569153	19.9174099
Bolesława Prusa	50.0555242	19.9177864
Brzegowa	50.0753694	19.8636580
Józefa Becka	50.0760798	19.8589297
Marynarska	50.0738552	19.8590535
Brzegowa	50.0763481	19.8613523
Młynówka Królewska	50.0812978	19.8514398
Bulwarowa	50.0815913	20.0461010
Stanisława Tondosa	50.0611863	19.8918979
Józefa Korzeniowskiego	50.0620014	19.8899669
Antoniego Odyńca	50.0613910	19.8911602
Franciszka Pększyca-Grudzińskiego	50.0646927	19.8873401
Ludwika Krzywickiego	50.0639540	19.8868512
Eugeniusza Romera	50.0607559	19.8946160
Tadeusza Szafrana	50.0345928	19.9328655
Kobierzyńska	50.0362275	19.9291427
Rynek Dębnicki	50.0519740	19.9270044
Salwatorska	50.0552110	19.9172199
Łowiecka	50.0563657	19.9217280
Tatarska	50.0543851	19.9243355
Mikołajska	50.0616183	19.9406400
Piasta Kołodzieja	50.1016513	20.0128600
Generała Leopolda Okulickiego	50.0932156	20.0292725
Generała Leopolda Okulickiego	50.0932782	20.0311288
Sándora Petőfiego	50.0946618	20.0362060
Nowolipki	50.0920860	20.0331013
Kocmyrzowska	50.0870261	20.0466719
Kocmyrzowska	50.0870005	20.0464115
Melchiora Wańkowicza	50.0842849	20.0518496
Kocmyrzowska	50.0892527	20.0561455
Kocmyrzowska	50.0888855	20.0551623
Kocmyrzowska	50.0902178	20.0570066
Kocmyrzowska	50.0897178	20.0566194
Karola Łowińskiego	50.0895606	20.0552413
Kocmyrzowska	50.0854051	20.0388557
Kocmyrzowska	50.0857740	20.0398801
Erazma Jerzmanowskiego	50.0169545	20.0114352
Jana Kurczaba	50.0131952	20.0054916
Jana Kurczaba	50.0120058	20.0077954
Leonida Teligi	50.0143448	20.0000900
Urzędnicza	50.0733768	19.9206072
Obopólna	50.0723505	19.9064143
Erazma Jerzmanowskiego	50.0128193	20.0116081
Erazma Jerzmanowskiego	50.0119699	20.0108132
Jana Kurczaba	50.0126782	20.0105652
Erazma Jerzmanowskiego	50.0125337	20.0117288
Jana Kurczaba	50.0121079	20.0098029
Leonida Teligi	50.0152384	20.0097690
Jana Kurczaba	50.0147951	20.0037058
Marii Orwid	50.0106789	20.0037018
Leonida Teligi	50.0156234	20.0063910
Jana Kurczaba	50.0133606	20.0071717
Jana Kurczaba	50.0132871	20.0080976
Leonida Teligi	50.0161557	20.0044845
Jana Kurczaba	50.0141036	20.0009808
Leonida Teligi	50.0139572	19.9999918
Leonida Teligi	50.0157744	20.0118453
Mieczysławy Ćwiklińskiej	50.0147733	20.0269975
Mieczysławy Ćwiklińskiej	50.0163188	20.0142868
Prosta	50.0246344	19.9913542
Prosta	50.0201632	19.9874827
Bytomska	50.0750422	19.9176900
Jana Stanisławskiego	50.0829776	19.9141746
Niska	50.0841103	19.9153589
Stanisława Kunickiego	50.0730034	19.8962192
Ignacego Sewera-Maciejowskiego	50.0728826	19.8969738
Kazimierza Kostaneckiego	50.0134173	19.9987046
Kazimierza Kostaneckiego	50.0136966	19.9989957
Kazimierza Kostaneckiego	50.0140271	19.9986689
Kosocicka	50.0063101	20.0179524
Rżącka	50.0047853	19.9885879
Mała Góra	50.0063543	20.0181154
Bieżanowska	50.0214524	20.0084737
Bieżanowska	50.0203257	20.0167302
Gipsowa	50.0291301	19.9706789
Księdza Piotra Ściegiennego	50.0150798	20.0002600
Dobczycka	50.0172973	19.9582492
Łapanowska	50.0165620	19.9582639
Ondraszka	50.0157759	19.9582691
Turniejowa	50.0174994	19.9598150
Gromady Grudziąż	50.0149782	19.9584347
Franciszka Karpińskiego	50.0161330	19.9615132
Michała Ossowskiego	50.0172871	19.9612529
Porucznika Jerzego Halszki	50.0056594	19.9482925
Trybuny Ludów	50.0178733	19.9636300
Łużycka	50.0157600	19.9638456
Trybuny Ludów	50.0198586	19.9604524
Włoska	50.0156798	19.9708006
Alfreda Dauna	50.0185241	19.9770047
Macedońska	50.0209942	19.9748048
Ivo Andricia	50.0191639	19.9758409
Białoruska	50.0172166	19.9743780
Włoska	50.0161333	19.9706082
Serbska	50.0205441	19.9728985
Podedworze	50.0125988	19.9764302
Tuchowska	50.0111273	19.9672577
Wspólna	50.0197012	19.9559614
Trybuny Ludów	50.0167037	19.9675144
Łabędzia	50.0256649	19.9635924
Poprzeczna	50.0241886	19.9636381
Wolska	50.0229365	19.9815408
Bieżanowska	50.0234037	19.9807696
Wiktora Heltmana	50.0255174	19.9700944
Krawiecka	50.0239221	19.9660804
Pańska	50.0274170	19.9665212
Marcowa	50.0143105	19.9626672
Marii i Bolesława Wysłouchów	50.0081154	19.9552627
Cechowa	50.0048541	19.9641850
Jakuba Bojki	50.0064292	19.9636419
Gwarna	50.0068022	19.9687118
Kijanki	50.0071293	19.9678883
Kordiana	50.0086788	19.9617363
Malwowa	50.0164233	19.9480632
Franciszka Bujaka	50.0099677	19.9441933
Mieczysławy Ćwiklińskiej	50.0159093	20.0187920
Mała Góra	50.0081356	20.0211743
Kalwaryjska	50.0441519	19.9477387
Wielicka	50.0077936	20.0137532
Wielicka	50.0083706	20.0128842
Kosocicka	50.0060388	20.0167464
Aleja Pułkownika Władysława Beliny-Prażmowskiego	50.0707465	19.9592043
Aleja Pułkownika Władysława Beliny-Prażmowskiego	50.0675787	19.9593105
Generała Tadeusza Bora-Komorowskiego	50.0849387	19.9715845
Lublańska	50.0854158	19.9708375
Generała Tadeusza Bora-Komorowskiego	50.0855811	19.9781937
Generała Tadeusza Bora-Komorowskiego	50.0854104	19.9750525
Stroma	50.0417963	19.9443845
Stanisława Smolki	50.0409950	19.9434578
Świętego Benedykta	50.0443986	19.9538971
Rękawka	50.0436181	19.9500267
Podskale	50.0379468	19.9418133
Parkowa	50.0428093	19.9508471
Radosna	50.0411394	19.9545407
Porucznika Antoniego Stawarza	50.0425251	19.9546281
Plac Lasoty	50.0422901	19.9523603
Andrzeja Potebni	50.0430652	19.9514385
Aleja Edwarda Dembowskiego	50.0413736	19.9559325
Legionów Józefa Piłsudskiego	50.0433738	19.9477780
Redemptorystów	50.0398189	19.9440941
Redemptorystów	50.0401188	19.9450985
Jana Zamoyskiego	50.0373402	19.9423947
Pawła Morawiańskiego	50.0253939	19.9961207
Na Kozłówce	50.0187855	19.9837352
Polonijna	50.0173958	19.9868687
Wlotowa	50.0188207	19.9863245
Wielicka	50.0173628	19.9909010
Leonida Teligi	50.0139600	19.9993545
Wielicka	50.0139931	19.9995124
Wielicka	50.0244968	19.9792358
Erazma Jerzmanowskiego	50.0145530	20.0114600
Erazma Jerzmanowskiego	50.0134532	20.0123392
Erazma Jerzmanowskiego	50.0145952	20.0120498
Wielicka	50.0138745	19.9998558
Pawia	50.0689244	19.9451250
Michała Siedleckiego	50.0549571	19.9527249
Wiślisko	50.0560699	19.9515022
Księdza Władysława Gurgacza	50.0568974	19.9501180
Księdza Władysława Gurgacza	50.0568289	19.9509143
Księdza Władysława Gurgacza	50.0569921	19.9516183
Księdza Władysława Gurgacza	50.0558178	19.9526972
Świętego Łazarza	50.0587893	19.9505588
Hugona Kołłątaja	50.0606796	19.9490637
Odona Bujwida	50.0611723	19.9511391
Odona Bujwida	50.0608953	19.9508113
Odona Bujwida	50.0610324	19.9506879
Generała Romana Sołtyka	50.0598389	19.9484927
Generała Józefa Dwernickiego	50.0594799	19.9487653
Aleja Ignacego Daszyńskiego	50.0586370	19.9506186
Krzemionki	50.0387736	19.9465862
Kraka	50.0415900	19.9546410
Tatrzańska	50.0424645	19.9522738
Rękawka	50.0437278	19.9546921
Jana Zamoyskiego	50.0430251	19.9479663
Stefana Czarnieckiego	50.0443963	19.9548595
Węgierska	50.0454559	19.9509004
Plac Przystanek	50.0406187	19.9593242
Franciszka Maryewskiego	50.0396617	19.9600396
Aleja Pod Kopcem	50.0392985	19.9611331
Za Torem	50.0404345	19.9583228
Kopiec Krakusa	50.0396555	19.9588303
Stanisława Mitery	50.0391711	19.9406033
Doktora Ludwika Zamenhofa	50.0635659	19.9470517
Edwarda Heila	50.0225929	19.9573880
Pszenna	50.0216401	19.9554175
Stefanii Sempołowskiej	50.0193612	19.9574039
Jastrzębia	50.0189128	19.9537310
Swoszowicka	50.0394115	19.9547369
Długa	50.0729429	19.9358274
Bronowicka	50.0765335	19.9041505
Na Błonie	50.0781075	19.8819222
Na Błonie	50.0786748	19.8822811
Na Błonie	50.0798135	19.8838013
Na Błonie	50.0809667	19.8824917
Na Błonie	50.0808369	19.8836346
Tadeusza Kościuszki	50.0526257	19.9141916
Złoty Róg	50.0819618	19.8931502
Górna	50.0801879	19.8982910
Bolesława Wallek-Walewskiego	50.0803126	19.8977182
Błażeja Czepca	50.0810530	19.8966190
Henryka Rodakowskiego	50.0794202	19.8990619
Józefa Leopolda Kmietowicza	50.0791256	19.8998058
Krakusów	50.0797343	19.9007193
Racheli	50.0810926	19.8955034
Złoty Róg	50.0814790	19.8987847
Narcyzowa	50.0883878	19.8830007
Groszkowa	50.0888748	19.8839586
Juliusza Lea	50.0701971	19.9199132
Andrzeja Struga	50.0767912	20.0455476
Obrońców Poczty Gdańskiej	50.0474650	19.9230963
Obrońców Poczty Gdańskiej	50.0482406	19.9226501
Obrońców Poczty Gdańskiej	50.0478309	19.9228073
Skwerowa	50.0484575	19.9266850
Wjazdowa	50.0799950	19.8972435
Gronostajowa	50.0278091	19.9000701
Ludwika Rydygiera	50.0074687	20.0098425
Ludwika Rydygiera	50.0048882	20.0048828
Alberta Schweitzera	50.0049691	20.0061398
Rafała Czerwiakowskiego	50.0075211	20.0116062
Ludwika Rydygiera	50.0074513	20.0105161
Wyżynna	50.0028257	19.9602870
Gajówka	50.0467716	19.8594356
Księcia Józefa	50.0452946	19.8590490
Księcia Józefa	50.0453349	19.8597405
Koziarówka	50.0457465	19.8591925
Zaskale	50.0472190	19.8655627
Kiejstuta Żemaitisa	50.0477894	19.8726872
Adolfa Szyszki-Bohusza	50.0477010	19.8743615
Adolfa Szyszki-Bohusza	50.0476192	19.8751387
Kamedulska	50.0488510	19.8754962
Jerzego Dobrzyckiego	50.0496679	19.8758360
Kamedulska	50.0487059	19.8790447
Kamedulska	50.0476580	19.8827231
Bruzdowa	50.0485462	19.8832841
Winowców	50.0483745	19.8815016
Pajęcza	50.0471297	19.8812634
Nietoperzy	50.0499178	19.8767922
Józefa Herzoga	50.0491608	19.8762389
Adolfa Szyszki-Bohusza	50.0474339	19.8746249
Ukryta	50.0516065	19.9070063
Senatorska	50.0529535	19.9167857
Wioślarska	50.0489352	19.9028653
Do Przystani	50.0436816	19.8890878
Rybna	50.0435704	19.8817678
Rozdroże	50.0415813	19.9314819
Legionów Józefa Piłsudskiego	50.0443442	19.9465104
Tadeusza Rejtana	50.0437588	19.9455860
Sokolska	50.0441632	19.9448598
Przełęcz	50.0371139	19.9419428
Zatorska	50.0432129	19.9384638
Swoboda	50.0426674	19.9359192
Turecka	50.0429456	19.9362799
Ludwinowska	50.0429944	19.9353751
Ludwinowska	50.0434108	19.9360360
Tadeusza Kościuszki	50.0525426	19.9138097
Księcia Józefa	50.0490109	19.9037175
Wioślarska	50.0489106	19.9026601
Strumienna	50.0200787	19.9466914
Aleksandra Kotsisa	50.0204677	19.9512960
Bystra	50.0200134	19.9496178
Zielona	50.0199012	19.9503774
Tarnobrzeska	50.0190951	19.9503536
Pierzchówka	50.0182050	19.9465427
Jana Sas-Zubrzyckiego	50.0175195	19.9492131
Porucznika Jerzego Halszki	50.0139422	19.9498738
Gołaśka	50.0148655	19.9536935
Łużycka	50.0148333	19.9709506
Czarnogórska	50.0210268	19.9719404
Plac Dominikański	50.0591942	19.9383383
Koło Strzelnicy	50.0632914	19.8803079
Aleja Kasztanowa	50.0645317	19.8696214
Krańcowa	50.0651502	19.8707853
Krańcowa	50.0661860	19.8705940
Na Wierzchowinach	50.0682158	19.8692738
Przesmyk	50.0684341	19.8857262
Przyjemna	50.0705837	19.8852387
Pamiętna	50.0726742	19.8795387
Księdza Ferdynanda Machaya	50.0750176	19.8800622
Wiedeńska	50.0748189	19.8838659
Franciszka Kowalskiego	50.0739236	19.8835130
Aleksandra Prystora	50.0738243	19.8842472
Jana Stróżeckiego	50.0742766	19.8812579
Tadeusza Ochlewskiego	50.0736234	19.8849892
Rotmistrza Witolda Pileckiego	50.0740659	19.8827470
"Jana Piwnika ""Ponurego"""	50.0741357	19.8819739
Olkuska	50.0751990	19.8855284
Trawiasta	50.0757533	19.8797905
Jabłonkowska	50.0760537	19.8874191
Jabłonkowska	50.0780690	19.8884390
Na Błonie	50.0786585	19.8835563
Na Błonie	50.0791938	19.8848188
Jabłonkowska	50.0799142	19.8861906
Polnych Kwiatów	50.0463089	19.8974534
Włóczków	50.0557039	19.9243866
Michała Bałuckiego	50.0480210	19.9255231
Zbożowa	50.0779294	19.9369082
Emilii Plater	50.0773523	19.9322811
Składowa	50.0799793	19.9329072
Montelupich	50.0738983	19.9395617
Bratysławska	50.0859517	19.9380572
Biała	50.0894434	19.9398970
Siewna	50.1002675	19.9470757
Siewna	50.1003442	19.9470062
Władysława Natansona	50.0984527	19.9484361
Kajetana Stefanowicza	50.0981824	19.9417575
Kajetana Stefanowicza	50.0982621	19.9423077
Kajetana Stefanowicza	50.0991751	19.9447972
Wądół	50.1022859	19.9478863
Wądół	50.1043958	19.9471876
Wądół	50.1047446	19.9471020
Koralowa	50.1032674	19.9466314
Koralowa	50.1041793	19.9484120
Koralowa	50.1034407	19.9475991
Koralowa	50.1036999	19.9477136
Witkowicka	50.1078648	19.9425203
Witkowicka	50.1086050	19.9504261
Drożnicka	50.1052533	19.9448829
Kwiatowa	50.1090611	19.9602517
Trzecia Góra	50.1097528	19.9600310
Górka Narodowa	50.1077009	19.9573596
Krakowska	50.1091460	19.9598754
Górka Narodowa	50.1063374	19.9550678
Plac Braci Dudzińskich	50.0348038	19.9733339
Dworcowa	50.0344135	19.9739224
Braterska	50.0259289	19.9799565
Ruciana	50.0251120	19.9804057
Mazurska	50.0256315	19.9808778
Maksyma Rylskiego	50.0261812	19.9825258
Anny Libera	50.0238204	19.9841657
Wojciecha Gersona	50.0248691	19.9876763
Generała Jakuba Jasińskiego	50.0242752	19.9935185
Spółdzielców	50.0189069	19.9808486
Okólna	50.0172441	19.9842459
Facimiech	50.0162538	19.9897402
Podlesie	50.0149348	19.9846341
Podlesie	50.0141278	19.9839739
Podlesie	50.0152307	19.9850729
Kalinowa	50.0085317	19.9828510
Niebieska	50.0043256	19.9843913
Czajna	50.0077576	19.9861789
Niebieska	50.0007882	19.9879779
Mokra	50.0109626	19.9820610
Jana Hallera	50.0018286	19.9929089
Niebieska	50.0003183	19.9882706
Jana Hallera	50.0006754	19.9922407
Jana Hallera	49.9957654	19.9910504
Harcerzy Krakowskich	49.9976737	19.9898093
Blacharska	49.9999837	19.9934180
Łamana	50.0060711	19.9889480
Obronna	50.0075983	19.9914857
Jana Izydora Sztaudyngera	49.9944222	19.9876636
Romana Żelazowskiego	49.9932034	19.9944873
Bieżanowska	50.0231220	19.9986491
Bieżanowska	50.0225965	20.0033570
Pod Strzechą	50.0866326	19.8731361
Stanisława Ignacego Witkiewicza	50.0876698	19.8698846
Stanisława Ignacego Witkiewicza	50.0912977	19.8629995
Zaklucze	50.0912724	19.8587244
Stanisława Ignacego Witkiewicza	50.0862186	19.8730050
Stanisława Ignacego Witkiewicza	50.0843898	19.8724596
Stanisława Brzozowskiego	50.0852019	19.8635600
Michała Wójcickiego	50.0845374	19.8627763
Emila Godlewskiego	50.0832281	19.8554388
Emila Godlewskiego	50.0836293	19.8582594
Emila Godlewskiego	50.0844238	19.8566583
Generała Bolesława Wieniawy-Długoszowskiego	50.0846186	19.8568436
Generała Henryka Kamieńskiego	50.0328399	19.9471270
Skotnicka	50.0075413	19.8738268
Mochnaniec	50.0168514	19.8834141
Mieczysława Medweckiego	50.0753224	20.0191479
Mieczysława Medweckiego	50.0755916	20.0137871
Księdza Józefa Meiera	50.0971593	19.9638506
Arcybiskupa Zygmunta Szczęsnego Felińskiego	50.0992204	19.9670139
Arcybiskupa Zygmunta Szczęsnego Felińskiego	50.0996778	19.9668044
Arcybiskupa Zygmunta Szczęsnego Felińskiego	50.1003529	19.9669955
Arcybiskupa Zygmunta Szczęsnego Felińskiego	50.1005166	19.9668446
Arcybiskupa Zygmunta Szczęsnego Felińskiego	50.1011535	19.9670090
Arcybiskupa Zygmunta Szczęsnego Felińskiego	50.0986298	19.9667750
Prochowa	50.0564519	19.9550646
Księdza Józefa Meiera	50.0984288	19.9645541
Księdza Józefa Meiera	50.0999093	19.9645794
Księdza Józefa Meiera	50.0992523	19.9651779
Lublańska	50.0850901	19.9612927
Lublańska	50.0849674	19.9676770
Opolska	50.0872317	19.9502628
Estakada Generała Tadeusza Rozwadowskiego	50.0865671	19.9523838
Mrozowa	50.0811051	20.0659834
Arcybiskupa Zygmunta Szczęsnego Felińskiego	50.1002348	19.9673545
Witkowicka	50.1087712	19.9565808
Piaskowa	50.0958933	19.9017233
Ujastek	50.0806683	20.0660412
Mrozowa	50.0816311	20.0663148
Turystyczna	50.0909307	19.9484722
Józefa Chełmońskiego	50.0938819	19.8998376
Mokra	50.0125095	19.9876278
Andrzeja Badurskiego	50.0112148	19.9911794
Generała Bolesława Wieniawy-Długoszowskiego	50.0828147	19.8743349
Na Polach	50.0958193	19.8794901
Profesora Adama Rożańskiego	50.1019318	19.8634584
Starego Dębu	50.1018572	19.8721142
Bieżanowska	50.0180367	20.0301022
Węgrzecka	50.1009378	19.9731093
Zakopiańska	50.0139359	19.9286418
Zakopiańska	50.0136193	19.9284758
Do Wilgi	50.0234652	19.9315856
Klementyny Hoffmanowej	50.0245967	19.9320286
Deotymy	50.0241170	19.9315433
Ciesielska	50.0250281	19.9323384
Do Wilgi	50.0242037	19.9305283
Do Wilgi	50.0252184	19.9257820
Oraczy	50.0259343	19.9322417
Oraczy	50.0255811	19.9334986
Odrzańska	50.0266627	19.9298192
Pienińska	50.0279767	19.9326357
Plac Łagiewnicki	50.0287168	19.9312469
Zielonogórska	50.0284091	19.9297493
Karola Bogdanowicza	50.0295251	19.9318392
Słupska	50.0287848	19.9327623
Kędzierzyńska	50.0291630	19.9301243
Na Nowinach	50.0857273	19.8560815
Stanisława Brzozowskiego	50.0873536	19.8652866
Piotra Brzezińskiego	50.0898503	19.8454110
Piotra Brzezińskiego	50.0879913	19.8454784
Piotra Brzezińskiego	50.0919636	19.8440749
Generała Bolesława Wieniawy-Długoszowskiego	50.0830826	19.8793408
Generała Bolesława Wieniawy-Długoszowskiego	50.0830048	19.8779191
Półłanki	50.0382273	20.0424999
Półłanki	50.0297320	20.0423555
Półłanki	50.0216283	20.0407316
Półłanki	50.0306139	20.0406934
Półłanki	50.0335075	20.0421435
Półłanki	50.0337729	20.0421537
Rynek Podgórski	50.0440672	19.9489003
Agatowa	50.0217386	20.0438000
Mariana Domagały	50.0206274	20.0503574
Agatowa	50.0197942	20.0492087
Złocieniowa	50.0147210	20.0502487
Aleksandra Gryglewskiego	50.0262358	19.9646587
Pańska	50.0268685	19.9633597
Maurycego Mochnackiego	50.0243235	19.9632241
Estońska	50.0185910	19.9658456
Makowa	50.0269093	19.9669805
Skowronia	50.0250667	19.9653875
Pańska	50.0286698	19.9707430
Rakuś	50.0120299	20.0308890
Ludwika Gardowskiego	50.0121547	20.0299287
Księdza Prałata Mariana Łaczka	50.0105214	20.0287918
Jana Smolenia	50.0111415	20.0240882
Jana Smolenia	50.0105413	20.0243178
Morsztynowska	50.0594015	19.9474245
Morsztynowska	50.0589373	19.9474635
Pawia	50.0701457	19.9449814
Warszawska	50.0736855	19.9442842
Wita Stwosza	50.0714643	19.9488691
Kątowa	50.0737099	19.9469330
Wita Stwosza	50.0685125	19.9510391
Żelazna	50.0751336	19.9464876
Żelazna	50.0748756	19.9461113
Wita Stwosza	50.0694915	19.9496956
Wjazd	50.0742274	19.9465743
Żelazna	50.0750108	19.9464255
Tunel Magda	50.0672012	19.9478605
Lubicz	50.0645609	19.9461541
Radziwiłłowska	50.0629154	19.9469236
Bosacka	50.0649028	19.9492550
Lubicz	50.0646367	19.9470552
Karmelicka	50.0640874	19.9323003
Karmelicka	50.0667117	19.9293129
Przy Rondzie	50.0651237	19.9614075
Plac Inwalidów	50.0691438	19.9264772
Generała Ignacego Prądzyńskiego	50.0833253	19.9537198
Czerwona	50.0850847	19.9555615
Sadowa	50.0851036	19.9545919
Aleja 29 Listopada	50.0857812	19.9544590
Aleja 29 Listopada	50.0854104	19.9539851
Aleja 29 Listopada	50.0859253	19.9545789
Antoniego Fertnera	50.0842641	19.9542038
Wiśniowa	50.0842996	19.9545001
Celarowska	50.0837625	19.9564960
Czereśniowa	50.0849261	19.9587984
Nadrzeczna	50.0817080	19.9571673
Gdańska	50.0809716	19.9573907
Księdza Kazimierza Siemaszki	50.0875559	19.9402245
Nowohucka	50.0654508	20.0040205
Jana Dekerta	50.0453105	19.9638619
Gromadzka	50.0419253	19.9778680
Powstańców Wielkopolskich	50.0452624	19.9731514
Nowohucka	50.0449363	19.9733683
Gromadzka	50.0386793	19.9773215
Saska	50.0419072	19.9833396
Stróża Rybna	50.0431309	19.9795335
Paproci	50.0442807	19.9804465
Wodna	50.0377668	19.9752225
Aleja Pokoju	50.0629476	19.9835471
Aleja Pokoju	50.0626625	19.9829903
Aleja Pokoju	50.0628470	19.9838105
Zwycięstwa	50.0633814	19.9792412
Stanisława Jachowicza	50.0618360	19.9787746
Świtezianki	50.0627183	19.9797224
Mariana Hemara	50.0842427	19.8452304
Mariana Hemara	50.0841370	19.8453161
Kazimierza Wierzyńskiego	50.0849982	19.8516951
Jarosława Dolińskiego	50.0828216	19.8459612
Wapiennik	50.0848335	19.8459987
Profesora Stefana Myczkowskiego	50.0841186	19.8486117
Jana Kozietulskiego	50.0159487	19.9967260
Republiki Korczakowskiej	50.0162082	20.0008248
Księdza Piotra Ściegiennego	50.0156565	19.9987685
Medyczna	50.0117397	19.9969950
Słona Woda	50.0092103	19.9946455
Dereniowa	50.0252143	19.9137923
Sudolska	50.0913436	19.9668152
Władysława Łuszczkiewicza	50.0914637	19.9687758
Profesora Tadeusza Seweryna	50.0209186	19.9812228
Liściasta	50.0228777	19.9111795
Łany	50.0238739	19.9136941
Sąsiedzka	50.0221490	19.9113925
Skośna	50.0114511	19.9022891
Wincentego Pola	50.0573176	19.9534138
Jana Pawła Woronicza	50.0870582	19.9571603
Białych Brzóz	50.0861844	19.9580551
Naczelna	50.0897068	19.9677414
Wilhelma Wilka-Wyrwińskiego	50.0715637	19.9670458
Farmaceutów	50.0716642	19.9695305
Farmaceutów	50.0707535	19.9684504
Bosaków	50.0843123	19.9609176
Sodowa	50.0342146	19.8987282
Józefa Narzymskiego	50.0748343	19.9693916
Kryniczna	50.0724291	19.9693761
Bratkowa	50.0730393	19.9700677
Stokrotek	50.0735289	19.9706477
Olgi Boznańskiej	50.0867368	19.9708256
Marka Eminowicza	50.0871396	19.9697471
Promienistych	50.0859701	19.9700080
Jana Kaczary	50.0863091	19.9676530
Dominikanów	50.0870509	19.9628325
Rezedowa	50.0867266	19.9614722
Żwirki i Wigury	50.0775031	19.9755363
Jerzego Bajana	50.0796368	19.9731093
Anieli Krzywoń	50.0780951	19.9732669
Widna	50.0765945	19.9746270
Pilotów	50.0777433	19.9704080
Mariana Raciborskiego	50.0754720	19.9699381
Podmiejska	50.0767504	19.9699356
Profesora Henryka Wereszyckiego	50.0757507	19.9705971
Swojska	50.0760358	19.9729160
Nieznana	50.0773388	19.9711844
Majowa	50.0759041	19.9733728
Rozmarynowa	50.0764626	19.9717624
Wiejska	50.0770277	19.9725303
Jerzego Bajana	50.0782854	19.9753962
Sadzawki	50.0815131	19.9741097
Mirosława Dzielskiego	50.0829346	19.9751303
Młyńska Boczna	50.0828083	19.9712452
Wielicka	50.0418150	19.9612462
Wielicka	50.0246891	19.9785898
Ugorek	50.0761151	19.9821117
Pawła Włodkowica	50.0746542	19.9842201
Nieduża	50.0732200	19.9827593
Aleja Jana Pawła II	50.0743169	20.0023771
Zakopiańska	50.0136409	19.9283656
Merkuriusza Polskiego	49.9931714	19.9398483
Generała Henryka Kamieńskiego	50.0333945	19.9464299
Generała Henryka Kamieńskiego	50.0330874	19.9468159
Generała Henryka Kamieńskiego	50.0325734	19.9474617
Monte Cassino	50.0453122	19.9218147
Kapelanka	50.0387425	19.9254581
Majora Ryszarda Nuszkiewicza	50.0903503	19.9620239
Ludwika Rydygiera	50.0063805	20.0103946
Jana XXIII	50.0066212	20.0082625
Gęsia	50.0534124	19.9578703
Jana Smolenia	50.0110238	20.0269705
Barbary	50.0171936	20.0246982
Heleny	50.0128981	20.0239401
Kolonijna	50.0109983	20.0327813
Kolonijna	50.0105466	20.0292665
Kolonijna	50.0103973	20.0306610
Opolska	50.0906332	19.9421173
Opolska	50.0907261	19.9423029
Opolska	50.0910440	19.9414949
Pasternik	50.0927640	19.8781086
Walerego Eliasza Radzikowskiego	50.0906495	19.8818101
Biskupa Jana Prandoty	50.0769537	19.9543199
Nowohucka	50.0560550	19.9997944
Nowohucka	50.0536797	19.9927085
Zwierzyniecka	50.0552553	19.9275041
Marszałka Józefa Piłsudskiego	50.0594029	19.9255185
Władysława Reymonta	50.0639106	19.9235482
Mazowiecka	50.0737015	19.9295432
Dobrego Pasterza	50.0890717	19.9578005
Nad Strugą	50.0886044	19.9572746
Plac Teodora Axentowicza	50.0714487	19.9259014
Brzozowa	50.0534140	19.9460675
Stradomska	50.0525212	19.9407638
Klimka Bachledy	50.0916627	19.9850825
Wawelska	50.0987015	19.9972569
Na Zboczu	50.0985579	19.9952578
Korony Polskiej	50.0975046	19.9934220
Orła Białego	50.0979160	19.9938350
Powstańców	50.1033835	19.9904867
Powstańców	50.1039503	19.9917874
Reduta	50.0946838	19.9788293
Strzelców	50.0913712	19.9740277
Strzelców	50.0919143	19.9744024
Centralna	50.0635606	20.0038040
Koszykarska	50.0523027	19.9896434
Ofiar Dąbia	50.0588227	19.9754415
Henryka Arctowskiego	50.0567894	20.0007800
Aleja Adolfa Dygasińskiego	50.0217018	19.9870463
Wojciecha Gersona	50.0233516	19.9866707
Na Wrzosach	50.0218999	19.9906087
Snycerska	50.0232460	19.9884319
Górników	50.0202983	19.9944809
Nad Potokiem	50.0224073	19.9969228
Aleksandry	50.0127547	20.0172865
Srebrnych Orłów	50.0937514	20.0051230
Księdza Kazimierza Jancarza	50.0938845	20.0052648
Obrońców Krzyża	50.0903826	20.0225090
Stanisława Mikołajczyka	50.0936226	20.0138515
Stanisława Mikołajczyka	50.0934537	20.0140935
Stanisława Mikołajczyka	50.0937136	20.0140094
Stanisława Mikołajczyka	50.0941736	20.0134932
Wiślicka	50.0882534	20.0014266
Wiślicka	50.0924766	20.0063112
Generała Leopolda Okulickiego	50.0932077	20.0290077
Generała Leopolda Okulickiego	50.0878249	20.0047922
Generała Leopolda Okulickiego	50.0877474	20.0034162
Generała Leopolda Okulickiego	50.0884920	20.0050941
Piasta Kołodzieja	50.0951990	20.0125692
Aleja Solidarności	50.0790494	20.0630894
Mosiężnicza	50.0654566	19.9620700
Kazimierza Kordylewskiego	50.0607861	19.9625127
Profesora Władysława Szafera	50.0613033	19.9637863
Cystersów	50.0639080	19.9700680
Stefana Rogozińskiego	50.0580101	19.9634461
Grzegórzecka	50.0576795	19.9667765
Ludwika Zieleniewskiego	50.0561650	19.9646839
Odmętowa	50.0628751	20.0507839
Jana Onufrego Zagłoby	50.0592513	20.0454165
Longinusa Podbipięty	50.0600648	20.0245450
Odmętowa	50.0553883	20.0356376
Sochy	50.0581538	20.0326785
Pleszowska	50.0919541	19.9355499
Prądnicka	50.0859742	19.9382635
Grażyny	50.0881696	19.9478509
Jana Pawła Woronicza	50.0872718	19.9558340
Borsucza	50.0278675	19.9279141
Nowosądecka	50.0240474	19.9793446
Prądnicka	50.0741223	19.9357253
Kwartowa	50.0908075	19.9791581
Pana Cogito	50.0921343	19.9783734
Antyczna	50.0925479	19.9781824
Jana Sabały	50.0930975	19.9842973
Liryczna	50.0913865	19.9816810
Janosika	50.0916330	19.9826378
Kwartowa	50.0905650	19.9791353
Jana Brzechwy	50.0910467	19.9823070
Jana Sabały	50.0924112	19.9845118
Balladyny	50.0912371	19.9803604
Franciszka Kniaźnina	50.0881323	19.9940402
Dobrego Pasterza	50.0876232	19.9947635
Andrzeja i Józefa Załuskich	50.0930398	19.9890544
Romana Florera	50.0853504	19.9975878
Romana Florera	50.0845045	20.0000585
Bronisława Włodarczyka	50.0855257	20.0070938
Aleja Pokoju	50.0695202	20.0130812
Narciarska	50.0702151	20.0108746
Narciarska	50.0710276	20.0098682
Dolna	50.0736176	20.0077686
Franciszka Wężyka	50.0737917	20.0120032
Załęże	50.0730974	20.0150152
Księdza Józefa Zastawniaka	50.0716616	20.0159730
Kwiatów Polskich	50.0714182	20.0138301
Nastrojowa	50.0714667	20.0127271
Tabaczna	50.0709769	20.0087931
Poleska	50.0718392	20.0085724
Juliana Tuwima	50.0708472	20.0138625
Aleja Jana Pawła II	50.0686358	20.0525480
Cienista	50.0852979	20.0380536
Mistrzejowicka	50.0935500	20.0280072
Gustawa Morcinka	50.1036394	20.0301888
Gustawa Morcinka	50.1042222	20.0331553
Gustawa Morcinka	50.1040983	20.0682269
Kantorowicka	50.0994942	20.0661814
Poległych w Krzesławicach	50.0919969	20.0572790
Jana Kazimierza	50.0939317	20.0472307
Kazimierza Sosnkowskiego	50.0995371	20.0103257
Bitwy Nad Bzurą	50.0985476	20.0088102
Generała Bernarda Monda	50.0971480	20.0111026
Jacka Augustyna Łopackiego	50.0909896	20.0218293
Stanisława Mikołajczyka	50.0913484	20.0188549
Jacka Augustyna Łopackiego	50.0910623	20.0215714
Za Górą	50.0901634	20.1327151
Za Górą	50.0891845	20.1330950
Za Górą	50.0887518	20.1332609
Za Górą	50.0882796	20.1376350
Karasiówka	50.0623852	20.1503356
Branicka	50.0567439	20.1183749
Branicka	50.0595473	20.1381411
Kosocicka	50.0040833	20.0046877
Obronna	50.0109145	19.9928316
Mokra	50.0114981	19.9896504
Konstantego Ildefonsa Gałczyńskiego	50.0702383	20.0133411
Dolnomłyńska	50.0726751	20.0083519
Stanisławy Wysockiej	50.0741757	20.0067656
Stanisławy Wysockiej	50.0741797	20.0072204
Aleja Pokoju	50.0689811	20.0113107
Dąbrówki	50.0459824	19.9569712
Janowa Wola	50.0466548	19.9566904
Czesława Tańskiego	50.0169870	20.0451634
Ludwika Jędrzejczyka	50.0158454	20.0453820
Adama Habeli	50.0143129	20.0441242
Leopolda Flanka	50.0145788	20.0454754
Brunona Schulza	50.0148679	20.0468284
Mogiłki	50.0126514	20.0452700
Stefana Stolarza	50.0080498	20.0482077
Henryka Hoyera	50.0089636	20.0456256
Dezyderego Szymkiewicza	50.0088422	20.0461146
Kazimierza Pochwalskiego	50.0087795	20.0453296
Leona Ślósarczyka	50.0077799	20.0378204
Pod Pomnikiem	50.0072590	20.0422620
Józefa Stępnia	50.0155175	20.0478313
Gustawa Pokrzywki	50.0804078	20.0181479
Małego Księcia	50.0818515	20.0177890
Lawendowa	50.0827979	20.0192887
Rondo Generała Stanisława Maczka	50.0847505	20.0200120
Aleja generała Władysława Andersa	50.0854083	20.0183223
Generała Tadeusza Bora-Komorowskiego	50.0878612	20.0035276
Aleja generała Władysława Andersa	50.0875012	20.0049039
Czarnolaska	50.0956033	20.0034525
Pińczowska	50.0961741	19.9996748
Nagłowicka	50.0962925	19.9989897
Zjazdu Gnieźnieńskiego	50.0984697	19.9928894
Budziszyńska	50.0971742	19.9928038
Teodora Parnickiego	50.0971102	19.9944289
Ernesta Cieślewskiego	50.0835315	19.9845720
Spadochroniarzy	50.0810039	19.9858331
Pułkownika Władysława Gnysia	50.0789760	19.9884130
Księdza Józefa Tischnera	50.0303655	19.9452156
Zakopiańska	50.0288364	19.9363450
Podłęska	50.0099964	20.0161565
Podłęska	50.0087711	20.0132331
Wiktora Zina	50.0054914	19.9300095
Siarczana	50.0057922	19.9278354
"Armii ""Kraków"""	50.0066490	19.9262035
Kolejarzy	49.9985183	19.9225524
Kazimierza Kierzkowskiego	50.0033763	19.9239467
Goździkowa	50.0012023	19.9244582
Ciechocińska	50.0024122	19.9242312
Ciepła	50.0065580	19.9272560
Józefa Marcika	50.0081763	19.9344936
Karpacka	50.0250610	19.9974501
Wojciecha Darasza	50.0256834	19.9947059
Andrzeja Małkowskiego	50.0252322	19.9969873
Solarzy	50.0236444	19.9978861
Podmiłów	50.0225220	20.0065986
Nadzieja	50.0223354	19.9752751
Wojciecha Stattlera	50.0195716	19.9837198
Telimeny	50.0180490	20.0146378
Laskowa	50.0206669	20.0213132
Łazy	50.0213050	20.0169413
Tadeusza Wyrwy-Furgalskiego	50.0642825	19.8852538
Pod Sikornikiem	50.0612992	19.8845016
Lajkonika	50.0618537	19.8867643
Majora Henryka Sucharskiego	50.0184479	20.0424563
Nefrytowa	50.0204698	20.0499871
Ametystowa	50.0215312	20.0490929
Wiesława Zarzyckiego	50.0173938	20.0640869
Bogucicka	50.0101458	20.0419026
Drożdżowa	50.0123945	20.0413110
Wojciecha Lipowskiego	50.0117549	20.0367872
Wojciecha Lipowskiego	50.0136525	20.0372111
Ferdynanda Weigla	50.0156019	20.0416738
Madejówka	50.0132859	20.0291610
Telimeny	50.0206903	20.0163953
Imielna	50.0210811	20.0141123
Ogórkowa	50.0201441	20.0245743
Komandora Bohdana Wrońskiego	50.0205381	20.0223896
Duża Góra	50.0178533	20.0223516
Konrada Wallenroda	50.0176912	20.0014239
Księdza Piotra Ściegiennego	50.0158068	19.9978489
Gzymsików	50.0730435	19.9295269
Gzymsików	50.0723619	19.9288394
Kawiory	50.0678908	19.9107341
Kawiory	50.0684679	19.9097141
Witolda Budryka	50.0688990	19.9086512
Gramatyka	50.0707527	19.9063980
Aleja Artura Grottgera	50.0742808	19.9229981
Henryka Sienkiewicza	50.0704554	19.9260310
Lubelska	50.0744081	19.9345323
Oboźna	50.0792093	19.9284361
Pod Fortem	50.0828087	19.9216214
Racławicka	50.0813964	19.9215837
Murowana	50.0765377	19.9446430
Towarowa	50.0765761	19.9439239
Kołowa	50.0718340	19.8984856
Rolnicza	50.0719737	19.9057962
Lubelska	50.0741014	19.9321466
Grenadierów	50.0780485	19.9064395
Marii Jaremy	50.0862355	19.9080185
Kazimierza Pużaka	50.0860485	19.9056585
Jana Buszka	50.0674232	19.9030677
Juliana Tokarskiego	50.0684428	19.9015113
Juliana Tokarskiego	50.0695348	19.9023369
Jadwigi z Łobzowa	50.0748603	19.9010506
Jadwigi z Łobzowa	50.0749657	19.9028252
Stanisława Skarbińskiego	50.0712858	19.9071798
Zakątek	50.0754732	19.9167497
Przeskok	50.0752949	19.9119484
Przeskok	50.0750404	19.9124868
Szafirowa	50.0912979	19.9546109
Bałtycka	50.0916813	19.9447683
Grażyny	50.0906604	19.9495124
Litawora	50.0922041	19.9478135
Kluczborska	50.0866096	19.9370407
Stefana Bobrowskiego	50.0582482	19.9671465
Stefana Bobrowskiego	50.0585432	19.9686034
Fabryczna	50.0593034	19.9705215
Widok	50.0594682	19.9805571
Kąt	50.0775388	19.9620689
Dukatów	50.0780311	19.9621788
Łukasza Cieplińskiego	50.0745562	19.9660143
Łukasza Cieplińskiego	50.0748718	19.9648602
Rymarska	50.0681386	19.9689738
Lucjana Siemieńskiego	50.0750563	19.9146049
Zakątek	50.0757785	19.9145090
Przeskok	50.0756691	19.9118380
Stary Gościniec	50.1082956	20.0715785
Gustawa Morcinka	50.1041762	20.0631653
Romana Ingardena	50.0620479	19.9212999
Filtrowa	50.0776522	19.8755289
Jałowcowa	50.0890079	19.9145154
Wielkotyrnowska	50.0884397	19.9150012
Piotra Stachiewicza	50.0843133	19.9170916
Piotra Stachiewicza	50.0826117	19.9172204
Heleny Modrzejewskiej	50.0884610	19.9157350
Gnieźnieńska	50.0875049	19.9078763
Marii Jaremy	50.0875755	19.9051997
Józefa Mehoffera	50.0891631	19.9131521
Jana Palacha	50.0885656	19.9175898
Przewóz	50.0451548	19.9838460
Sarmacka	50.0438360	19.9764476
Na Dołach	50.0453204	19.9673334
Wałowa	50.0457464	19.9667069
Zaułek	50.0445644	19.9638250
Hetmańska	50.0441172	19.9613332
Świętej Kingi	50.0439580	19.9603166
Jana Tarnowskiego	50.0435509	19.9607148
Lwowska	50.0446702	19.9576930
Niwy	50.0463436	19.9697669
Koszykarska	50.0477480	19.9858920
Księdza Wincentego Turka	50.0472991	19.9877750
Myśliwska	50.0456307	19.9886615
Lipska	50.0437347	20.0008557
Lipska	50.0397707	19.9994998
Józefa Rzebika	50.0417233	19.9916315
Przewóz	50.0413085	19.9935788
Przewóz	50.0406435	19.9961993
Szczecińska	50.0438258	19.9912129
Gumniska	50.0471399	19.9912510
Lasówka	50.0467775	19.9941454
Myśliwska	50.0458999	19.9995335
Lipska	50.0414840	19.9995404
Łanowa	50.0390014	19.9971026
Seweryna Goszczyńskiego	50.0375654	19.9912425
Źródlana	50.0371559	19.9906986
Kacza	50.0352546	19.9932499
Gliniana	50.0356635	19.9951579
Mariana Batki	50.0356316	19.9881665
Węglarska	50.0394260	19.9966947
Motyla	50.0370043	19.9975404
Motyla	50.0369350	19.9946841
Kazimierza Siemienowicza	50.0384987	19.9959152
Żeńców	50.0358028	19.9923703
Kozia	50.0344832	19.9985017
Kacza	50.0366578	19.9862418
Zgody	50.0903619	19.9505828
Kołaczy	50.0902786	19.9513122
Kadecka	50.0744621	19.9122325
Słowicza	50.0863162	19.8987885
Jordanowska	50.0946523	19.9113399
Stelmachów	50.0957341	19.9055437
Stelmachów	50.0979482	19.8970992
Nawigacyjna	50.0951310	19.9144382
Bukietowa	50.0949566	19.9135373
Orlich Gniazd	50.0975190	19.9108271
Orlich Gniazd	50.0975655	19.9118175
Chabrowa	50.0983712	19.9099925
Starego Wiarusa	50.1008844	19.9125041
Kaczorówka	50.1072950	19.9069280
Generała Franciszka Paszkowskiego	50.1072080	19.9058052
Gospodarska	50.1097136	19.9028437
Na Mostkach	50.1122886	19.9064329
Azaliowa	50.1081415	19.8974903
Maciejkowa	50.1090845	19.8982355
Pękowicka	50.1036228	19.9145359
Wiarusa	50.1016634	19.9177580
Słoneczna	50.1030745	19.9169080
Sympatyczna	50.1039734	19.9156937
Aleja Konarowa	50.0469194	19.8380722
Zakamycze	50.0595622	19.8361592
Astronomów	50.0536385	19.8420056
Aleja Do Kopca	50.0597514	19.8478681
Kogucia	50.0677715	19.8736030
Dolina	50.0688641	19.8698896
Grabowa	50.0684416	19.8570657
Adriana Baranieckiego	50.0678340	19.8558800
Leona Chwistka	50.0681845	19.8551847
Jana i Józefa Kotlarczyków	50.0673896	19.8577880
Jana Łazarskiego	50.0675458	19.8590046
Sarnie Uroczysko	50.0679944	19.8596925
Aleja Panieńskich Skał	50.0671512	19.8627217
Jontkowa Górka	50.0668255	19.8647474
Aleja Sosnowa	50.0661312	19.8658780
Za Skłonem	50.0610841	19.8366579
Za Skłonem	50.0621778	19.8365742
Wiosenna	50.0682331	19.8501848
Rysi Stok	50.0692373	19.8532910
Wilczy Stok	50.0692853	19.8542294
Zielony Dół	50.0658670	19.8556102
Tadeusza Rogalskiego	50.0663301	19.8765548
Podłącze	50.0681243	19.8774485
Tadeusza Rogalskiego	50.0669811	19.8779981
Ludmiły Korbutowej	50.0656010	19.8826532
Strzelnica	50.0662406	19.8861930
Klemensa Bąkowskiego	50.0639808	19.8861652
Ludmiły Korbutowej	50.0695428	19.8778017
Złota	50.0654615	19.8835892
Zygmunta Wyrobka	50.0645610	19.8841021
Jana Zygmunta Robla	50.0644782	19.8829295
Jana Zygmunta Robla	50.0647635	19.8826783
Doktora Mieczysława Owcy-Orwicza	50.0591873	19.8938155
Józefa Korzeniowskiego	50.0613537	19.8992786
Piastowska	50.0600915	19.9005384
Leszczynowa	50.0587109	19.8999073
Filtrowa	50.0772701	19.8727312
Franciszka Bielaka	50.0660895	19.8778978
Zaogrodzie	50.0434217	19.8236550
Na Wirach	50.0410326	19.8192890
Sokola	50.0414448	19.8217019
Dworna	50.0426046	19.8276355
Sępia	50.0414851	19.8268558
Sępia	50.0418005	19.8275448
Pod Janem	50.0431725	19.8295410
Orla	50.0434173	19.8270648
Dworna	50.0428947	19.8235108
Włodzimierza Puchalskiego	50.0425891	19.8213743
Puszczyków	50.0421601	19.8225262
Sępia	50.0421117	19.8242433
Zakręt	50.0409865	19.8284449
Orla	50.0374255	19.8255148
Czajek	50.0405668	19.8313246
Bażancia	50.0408498	19.8306687
Zakręt	50.0416467	19.8321306
Bielańska	50.0377467	19.8233679
Inżyniera Adama Bielańskiego	50.0404434	19.8165911
Mirowska	50.0358847	19.8238495
Aleja Konarowa	50.0474367	19.8387412
Aleja Panieńskich Skał	50.0654842	19.8629999
Aleja Kasy Oszczędności Miasta Krakowa	50.0592631	19.8627511
Aleja Wędrowników	50.0551763	19.8507144
Aleja Wędrowników	50.0546614	19.8457320
Aleja Wędrowników	50.0473676	19.8381827
Zawodzie	50.0917908	19.9534063
Polna	50.0930899	19.9544598
Kręta	50.0926614	19.9546741
Proszowicka	50.0926657	19.9370840
Piotra Kluzeka	50.0932165	19.9356513
Piaszczysta	50.0962842	19.9312074
Zielna	50.0378501	19.9078023
Zielna	50.0401118	19.9085875
Widłakowa	50.0364041	19.8845468
Nad Czerną	50.0174794	19.8262023
Tyniecka	50.0233807	19.8309131
Kolna	50.0335582	19.8318910
Koszalińska	50.0272413	19.9311277
Klemensa Junoszy Szaniawskiego	50.0293708	19.9326584
Świętego Tomasza	50.0621307	19.9421797
Świętego Marka	50.0615679	19.9433235
Jantarowa	50.0760771	19.8313362
Grzegorza Korzeniaka	50.0749060	19.8329504
Bolesława Leśmiana	50.0628637	19.8338598
Kazimierza Wyżgi	50.0644325	19.8358124
Głogowiec	50.0603508	19.8291235
Przyszłości	50.0662033	19.8424873
Powstania Styczniowego	50.0691275	19.8237007
Insurekcji Kościuszkowskiej	50.0687854	19.8285945
Insurekcji Kościuszkowskiej	50.0714071	19.8285246
Powstania Listopadowego	50.0683529	19.8174378
Kuźnicy Kołłątajowskiej	50.0994396	19.9592511
Głogowa	50.1042942	19.9386105
Nowa Górka	50.1049018	19.9406919
Koło Białuchy	50.1038017	19.9402161
Suche Łąki	50.1049886	19.9413672
Turowiec	50.1029471	19.9416893
Głogowa	50.1010804	19.9438587
Syreny	50.0918606	19.9460518
Adama Vetulaniego	50.0947647	19.9247964
Seniorów Lotnictwa	50.0788845	19.9849376
Wielicka	50.0326606	19.9694654
Wielicka	50.0320085	19.9698530
Siemomysła	50.0317328	19.9691091
Wielicka	50.0300444	19.9704931
Profesora Zygmunta Chylińskiego	50.0974238	19.9478289
Profesora Zygmunta Chylińskiego	50.0968316	19.9493268
Przemysłowa	50.0480205	19.9599626
Lipowa	50.0472949	19.9612504
Wincentego Weryhy-Darowskiego	50.0851977	19.8463695
Kazimierza Wierzyńskiego	50.0840853	19.8461782
Wincentego Weryhy-Darowskiego	50.0867997	19.8470248
Falista	50.0305622	19.8575059
Tomasza Prylińskiego	50.0322888	19.8985727
Sławomira Odrzywolskiego	50.0313155	19.8977595
Zakrzowiecka	50.0301761	19.8964590
Tyniecka	50.0413430	19.9016434
Jurka Bitschana	50.0878707	19.9689495
Jana Buszka	50.0680979	19.8988557
Dolnych Młynów	50.0641816	19.9276855
Mierzeja Wiślana	50.0388693	20.0042417
Mierzeja Wiślana	50.0388321	20.0044345
Mierzeja Wiślana	50.0380421	20.0041720
Obrońców Modlina	50.0362406	20.0148726
Sudecka	50.0329070	20.0014429
Biskupińska	50.0361102	20.0117974
Bagrowa	50.0379596	20.0023635
Pułkownika Stanisława Dąbka	50.0338399	20.0163531
Litawora	50.0916583	19.9494248
Walerego Eliasza-Radzikowskiego	50.0853821	19.8998826
Dobiesława Kurozwęckiego	50.0820611	19.8428479
Pułkownika Stanisława Dąbka	50.0359347	20.0233748
Pułkownika Stanisława Dąbka	50.0374662	20.0241285
Kłodzka	50.0175080	19.9937815
Aleksandry	50.0098353	20.0182807
Aleksandry	50.0127403	20.0160894
Mała Góra	50.0064361	20.0183794
Rondo Mogilskie	50.0665362	19.9598111
Józefa Brodowicza	50.0689219	19.9609693
Rynek Główny	50.0627355	19.9369043
Erazma Jerzmanowskiego	50.0130002	20.0103649
Jana Kurczaba	50.0124588	20.0098522
Księdza Piotra Ściegiennego	50.0169403	19.9999750
Księdza Piotra Ściegiennego	50.0172727	19.9989444
Konrada Wallenroda	50.0173382	20.0030002
Muzyków	50.0209776	19.9937688
Aleja Adolfa Dygasińskiego	50.0205084	19.9912056
Śnieżna	50.0210203	19.9915156
Promienna	50.0207719	19.9925239
Marcina Bielskiego	50.0236993	19.9943823
Jana Kantego Andrusikiewicza	50.0229356	19.9941391
Sadka	50.0136309	19.9870036
Górska	50.0236405	19.9725187
Nad Serafą	50.0073993	20.0343564
Aleksandry	50.0162649	20.0162286
Mieczysławy Ćwiklińskiej	50.0165068	20.0156187
Rondo Generała Stanisława Maczka	50.0848601	20.0184281
Rondo Kocmyrzowskie imienia księdza Józefa Gorzelanego	50.0796959	20.0267622
Plac Centralny imienia Ronalda Reagana	50.0722274	20.0365976
Aleja Jana Pawła II	50.0705027	20.0418979
Plac Centralny imienia Ronalda Reagana	50.0725647	20.0368655
Rondo Kocmyrzowskie imienia księdza Józefa Gorzelanego	50.0795434	20.0279043
Rondo Kocmyrzowskie imienia księdza Józefa Gorzelanego	50.0799681	20.0271672
Rondo Generała Stanisława Maczka	50.0850967	20.0199924
Rondo Generała Stanisława Maczka	50.0851547	20.0183561
Rondo Mogilskie	50.0665312	19.9586242
Rondo Mogilskie	50.0667227	19.9590649
Rondo Mogilskie	50.0656810	19.9585772
Kalwaryjska	50.0437974	19.9470522
Wielicka	50.0140287	19.9989054
Wielicka	50.0144055	19.9983475
Rondo Antoniego Matecznego	50.0362175	19.9405497
Marii Konopnickiej	50.0473871	19.9336942
Marii Konopnickiej	50.0467041	19.9338591
Marii Konopnickiej	50.0508203	19.9309897
Aleja Adama Mickiewicza	50.0653887	19.9246453
Rondo Ofiar Katynia	50.0874432	19.8919849
Wojciecha Weissa	50.0877660	19.9092814
Josepha Conrada	50.0895320	19.9079008
Wielicka	50.0419353	19.9614237
Aleja Powstańców Śląskich	50.0421126	19.9607836
Powstańców Wielkopolskich	50.0426895	19.9661288
Rondo 308 Dywizjonu	50.0668056	20.0043091
Rondo 308 Dywizjonu	50.0673041	20.0042870
Rondo 308 Dywizjonu	50.0671243	20.0046444
Rondo Czyżyńskie	50.0737691	20.0176015
Rondo Czyżyńskie	50.0734247	20.0179153
Aleja Jana Pawła II	50.0730996	20.0187492
Plac Centralny imienia Ronalda Reagana	50.0725571	20.0377557
Plac Centralny imienia Ronalda Reagana	50.0716237	20.0366146
Aleja Solidarności	50.0791891	20.0660637
Aleja Żubrowa	50.0547831	19.8549269
Królowej Jadwigi	50.0658989	19.8755476
Królowej Jadwigi	50.0648355	19.8795275
Aleja Zygmunta Krasińskiego	50.0570649	19.9262600
Kalwaryjska	50.0438439	19.9471426
Świętej Gertrudy	50.0592508	19.9416663
Józefa Dietla	50.0567856	19.9459823
Starowiślna	50.0564211	19.9453973
Basztowa	50.0660465	19.9402704
Grodzka	50.0586331	19.9379259
Floriana Straszewskiego	50.0602278	19.9325409
Jacka Malczewskiego	50.0547686	19.9018958
Gołaśka	50.0147311	19.9555801
Sielska	50.0116033	19.9253814
Jeleniogórska	50.0108804	19.9227270
Torfowa	50.0174344	19.9097096
Torfowa	50.0178980	19.9097581
Obozowa	50.0166649	19.9105476
Wincentego Oszustowskiego	50.0446671	19.8241112
Wincentego Oszustowskiego	50.0446192	19.8235970
Rędzina	50.0485805	19.8281475
Czesława Niemena	50.0450780	19.8255447
Bagatela	50.0450964	19.8260753
Orla	50.0415412	19.8263038
Kaszubska	50.0407086	19.8267967
Zakręt	50.0410418	19.8265756
Czyżyków	50.0422064	19.8221238
Orla	50.0403625	19.8256217
Jemiołuszek	50.0409279	19.8218899
Forteczna	50.0006176	19.9078711
Izydora Kopernickiego	49.9990332	19.9123201
Narvik	50.0010329	19.9103518
Fałęcka	50.0044701	19.9092883
Księżycowa	50.0050441	19.9206013
Heleny Marusarzówny	50.0052056	19.9081782
Na Grabinach	50.0397397	19.8234521
Na Grabinach	50.0400189	19.8230437
Bielańska	50.0393955	19.8232859
Puszczyków	50.0404660	19.8245654
Orla	50.0380629	19.8253176
Pod Janem	50.0434977	19.8279662
Pod Janem	50.0427442	19.8285473
Skalna	50.0417331	19.8287810
Skalna	50.0398437	19.8295507
Krucza	50.0418379	19.8346923
Księcia Józefa	50.0430558	19.8312731
Daleka	50.0425326	19.8317653
Okrąg	50.0454722	19.8220867
Jodłowa	50.0491279	19.8661209
Świętego Wawrzyńca	50.0498431	19.9468838
Trynitarska	50.0479049	19.9466946
Jakuba	50.0519761	19.9467486
Kupa	50.0519653	19.9459837
Izaaka	50.0515331	19.9465785
Beera Meiselsa	50.0511204	19.9434194
Bożego Ciała	50.0521810	19.9430094
Józefa	50.0510788	19.9466178
Józefa	50.0506075	19.9444967
Paulińska	50.0491657	19.9382113
Świętej Agnieszki	50.0519568	19.9404764
Skawińska	50.0471163	19.9397234
Dajwór	50.0534061	19.9485425
Świętego Wawrzyńca	50.0506395	19.9505222
Świętego Wawrzyńca	50.0500373	19.9477554
Świętego Wawrzyńca	50.0505531	19.9524593
Wąska	50.0506566	19.9476523
Alejka Ochrony Przyrody	50.0847474	19.9214654
Alejka M. Lewińskiego	50.0871004	19.9207798
Obozowa	50.0163931	19.9090938
Studzianki	50.0190604	19.9093408
Obozowa	50.0157160	19.9061473
Obozowa	50.0145890	19.9085446
Obozowa	50.0154562	19.9093903
Obozowa	50.0158892	19.9096877
Gwieździsta	50.0159755	19.9068350
Obozowa	50.0187136	19.9132951
Ernesta Solvaya	50.0137529	19.9118158
Tadeusza Starca	50.0139337	19.9130910
Księdza Wojciecha Karabuły	50.0146359	19.9130125
Karola Szczerbińskiego	50.0141222	19.9132723
Benedykta Cesarza	50.0136516	19.9140869
Doktora Zygmunta Łuczyńskiego	50.0133944	19.9113131
Chmieleniec	50.0177170	19.8982852
Mochnaniec	50.0169724	19.8866576
Soroki	50.0000247	19.8981635
Plac Inwalidów	50.0699957	19.9251455
Plac Inwalidów	50.0695860	19.9259738
Woźniców	50.0682642	20.0185574
Centralna	50.0678968	20.0133146
Śliwkowa	50.0711753	20.0169859
Longinusa Podbipięty	50.0601611	20.0244940
Na Załęczu	50.0583690	20.0168208
Działkowicza	50.0618822	20.0239690
Łęgowa	50.0624248	20.0285973
Habina	50.0587960	20.0314852
Zwycięstwa	50.0636344	19.9797475
Stanisławy Wysockiej	50.0735475	20.0002277
Obozowa	50.0165215	19.9073032
Obozowa	50.0119852	19.9085881
Obozowa	50.0140163	19.9080031
Podłącze	50.0675607	19.8778414
Tadeusza Rogalskiego	50.0668919	19.8773645
Berberysowa	50.0634889	19.8761733
Nasza	50.0629622	19.8782918
Bodziszkowa	50.0662725	19.8697447
Halki	50.0647899	19.8583323
Niepokalanej Marii Panny	50.0598901	20.0246308
Ogłęczyzna	50.0575178	20.0252004
Longinusa Podbipięty	50.0592352	20.0239354
Isep	50.0538401	20.0156090
Stręcka	50.0504376	20.0149923
Michała Wołodyjowskiego	50.0559984	20.0437250
Grąby	50.0551453	20.0390155
Opata Salwińskiego	50.0553836	20.0413784
Andrzeja Kmicica	50.0578866	20.0430233
Jagienki	50.0570324	20.0436899
Graniczna	50.0561108	20.0438986
Wojenna	50.0558005	20.0441119
Jeremiego Wiśniowieckiego	50.0560400	20.0465619
Ziarkowa	50.0617515	20.0458571
Pod Sikornikiem	50.0620828	19.8824325
Ludwika Węgierskiego	50.0599282	19.8963776
Zimorodków	50.0585711	19.8954853
Spokojna	50.0689125	19.9173300
Misjonarska	50.0712185	19.9125283
Ogrodniczek	50.0689730	19.9178370
Rozdroże	50.0398857	19.9299838
Dworska	50.0441626	19.9243175
Jana Bułhaka	50.0468914	19.9307720
Jemiołowa	50.0346617	19.8875192
Skotnicka	50.0325460	19.8830297
Pustelnia	50.0320763	19.8580610
Falista	50.0325057	19.8557987
Krzewowa	50.0356763	19.8552896
Widłakowa	50.0333591	19.8580865
Nierówna	50.0396920	19.8731764
Bodzowska	50.0404649	19.8713524
Widłakowa	50.0409866	19.8712619
Wielkanocna	50.0394313	19.8685709
Bodzowska	50.0391057	19.8709193
Pustelnia	50.0316483	19.8596230
Bodzowska	50.0364138	19.8681367
Widłakowa	50.0390813	19.8749130
Nierówna	50.0402496	19.8728963
Krzewowa	50.0311615	19.8550499
Pustelnia	50.0317836	19.8575759
Widłakowa	50.0371197	19.8636963
Rodzinna	50.0329523	19.8866370
Skotnicka	50.0294284	19.8826349
Profesora Włodzimierza Demetrykiewicza	50.0290445	19.9038308
Skotnicka	50.0063648	19.8733815
Zawiła	50.0071132	19.9249643
Doktora Józefa Babińskiego	50.0075564	19.8928906
Winnicka	50.0272830	19.8609417
Winnicka	50.0190271	19.8740984
Obrońców Tobruku	50.0099081	19.8764782
Szymona Szymonowica	50.0114657	19.8782030
Czwartaków	50.0181362	19.8816575
Obrońców Helu	50.0193251	19.8814171
Aleksandra Zelwerowicza	50.0179292	19.8789704
Braterstwa Broni	50.0179597	19.8827966
Czerwone Maki	50.0181500	19.8885446
Skotnicka	50.0203406	19.8784735
Domowa	50.0169866	19.8778120
Ćwikłowa	50.0359155	19.8889875
Wzgórze	50.0353236	19.8889658
Ćwikłowa	50.0345686	19.8894430
Obozowa	50.0165803	19.9080321
Borkowskie Błonia	50.0136885	19.9110584
Widłakowa	50.0321095	19.8576903
Orla	50.0559107	19.8282246
Zakamycze	50.0567369	19.8288537
Rzepichy	50.0624402	19.8350022
Junacka	50.0687523	19.8535935
Chełmska	50.0677229	19.8491931
Aleja Wojciecha Młynarskiego	50.0347228	19.9003158
Jerzego Harasymowicza	50.0342600	19.8979639
Przełom	50.0357544	19.8965504
Na Leszczu	50.0335257	19.8978815
Świętego Piotra	50.0362063	19.8952233
Gabriela Słońskiego	50.0337520	19.8936163
Kaspra Bażanki	50.0327101	19.8920271
Filipa Pokutyńskiego	50.0318207	19.8964793
Macieja Moraczewskiego	50.0311060	19.8964778
Władysława Ekielskiego	50.0311707	19.8986879
Teodora Talowskiego	50.0314287	19.8991903
Feliksa Księżarskiego	50.0315341	19.8999457
Krasowa	50.0331305	19.8990348
Chmieleniec	50.0185688	19.8981115
Luciany Frassati-Gawrońskiej	50.0206444	19.8976606
Porucznika Emira	50.0207228	19.8776922
Podole	50.0218448	19.8882261
Skalica	50.0348225	19.8960130
Sławomira Odrzywolskiego	50.0327181	19.8970547
Zakrzowiecka	50.0305840	19.8940146
Walerego Goetla	50.0660351	19.9051186
Walerego Goetla	50.0667788	19.9047083
Feliksa Radwańskiego	50.0665520	19.9060106
Wodociągowa	50.0529829	19.8966063
Cedrowa	50.0592661	19.8723128
Koło Strzelnicy	50.0605351	19.8808970
Zygmunta Wyrobka	50.0643877	19.8846276
Czeremchowa	50.0654722	19.8803039
Stanisława Ciechanowskiego	50.0664815	19.8797098
Skotnicka	50.0251802	19.8801115
Skotnicka	50.0283594	19.8817298
Jemiołowa	50.0338431	19.8882422
Tyniecka	50.0361240	19.8882208
Stanisława Juchnowicza	50.0762717	20.0349624
Zbigniewa Seiferta	50.0760942	20.0363256
Generała Mieczysława Boruty-Spiechowicza	50.0744546	20.0297380
Wiśniowy Sad	50.0751592	20.0279748
Generała Feliksa Deli	50.0762606	20.0335807
Zagaje	49.9988135	19.9080622
Józefa Bellerta	49.9978415	19.9132743
Karola Homolacsa	49.9954639	19.9129557
Czesława Boratyńskiego	49.9946745	19.9120638
Piusa Welońskiego	49.9961708	19.9121847
Eugenii Umińskiej	49.9947399	19.9135480
Leona Wachholza	49.9979393	19.9128842
Izydora Kopernickiego	49.9989310	19.9131371
Józefa Kostrzewskiego	49.9979761	19.9090088
Księdza Władysława Mączyńskiego	49.9996651	19.9097482
Warowna	49.9999601	19.9063515
Rdzawa	49.9993268	19.9072865
Chojnicka	49.9995560	19.9067382
Pustynna	50.0043678	19.9154610
Kwiatowa	49.9979625	19.9084107
Druhny Hanki	50.0131474	19.9107300
Maksymiliana Rutkowskiego	49.9991208	19.9095058
Doktora Judyma	50.0004923	19.9146802
Księdza Adolfa Zagrodzkiego	50.0124705	19.9107010
Heleny Marusarzówny	50.0053213	19.9106444
Czerska	50.0005984	19.9065494
Stefana Ziobrowskiego	50.0124514	19.9097766
Jana Miodońskiego	49.9995185	19.9088701
Owocowa	50.0010405	19.9232499
Kokosowa	50.0001750	19.9233141
Goździkowa	50.0002962	19.9240055
Hubalczyków	50.0008359	19.9262438
Jasielska	50.0017584	19.9264108
Ciechocińska	50.0028657	19.9281043
Alojzego Horaka	50.0057134	19.9331220
Pysocice	50.0855045	20.1685723
Narcyza Wiatra	50.0813622	20.1620124
Powojowa	50.0476663	20.1293663
Pysońce	50.0587116	20.1590679
Podstawie	50.0662024	20.1786708
Edwarda Szymańskiego	50.0655294	20.1481451
Wiatraczna	50.0862850	20.1484673
Chałupki	50.0536797	20.1284331
Równa	50.1138775	20.1823193
Tymiankowa	50.0707950	20.1615890
Zaporębie	50.0576719	20.1446298
Generała Michała Karaszewicza-Tokarzewskiego	50.0646531	20.1425665
Ziemska	50.0705799	20.1659114
Kąkolowa	50.0499196	20.1321462
Żółwia	50.0491928	20.1268690
Rusiecka	50.0868444	20.1459792
Deszczowa	50.0648655	20.1378532
Andrzeja Waligórskiego	50.0834530	20.1753007
Generała Michała Karaszewicza-Tokarzewskiego	50.0540802	20.1492043
Józefa Ostafina	50.1047645	20.1686046
Krakowska	50.1187715	20.1159153
Jana Gajocha	50.0715871	20.0425791
Gustawa Daniłowskiego	50.0720107	20.0512012
Zuchów	50.0708042	20.0462700
Strażacka	50.0425034	20.0276330
Agawy	50.0414239	20.0228550
Kawowa	50.0433431	20.0238441
Albatrosów	50.0377553	20.0186591
Golikówka	50.0451451	20.0290284
Kantorowicka	50.0981249	20.0686398
Wadowska	50.0971504	20.1219166
Pomykany	50.0976078	20.0820769
Księdza Zygmunta Kaczyńskiego	50.0999729	20.0781231
Jubileuszowa	50.1001662	20.0713318
Blokowa	50.0899498	20.0730093
Grębałowska	50.0999562	20.0747080
Pruska	50.1085709	20.0807229
Luborzycka	50.1042225	20.0779536
Niewielka	50.0961338	20.0898823
Sybiraków	50.1045556	20.0857929
Kosów	50.0992316	20.1254232
Mieczysława Kamberskiego	50.1034311	20.0762163
Lubocka	50.0938329	20.0815459
Folwarczna	50.1002313	20.0787506
Piotra Michałowskiego	50.1138901	20.1275548
Emila Freege'go	50.1052999	20.0764804
Studzienna	50.0974382	20.0776220
Władysława Łokietka	50.0904623	19.9190743
Aleja Jana Pawła II	50.0737819	19.9952451
Rokitniańska	50.0861354	19.9588110
Stefana Otwinowskiego	50.0780671	19.9610233
Jana Ostroroga	50.0855159	19.9588376
Marii Pawlikowskiej-Jasnorzewskiej	50.0860107	19.9604111
Majora Pilota Mariana Pisarka	50.0844059	20.0006543
Gaik	50.1100013	19.8863243
Jurajska	50.1230588	19.9004169
Na Zielonki	50.1145386	19.8983911
Pękowicka	50.1104835	19.9118043
Jęczmienna	50.1131965	19.9001495
Gaik	50.1106231	19.8903455
Zefirowa	50.1150643	19.9015210
Na Budzyniu	50.1114917	19.8939995
Potoczek	50.1133566	19.8936154
Szydło	50.1246769	19.8855579
Zygmunta Waliszewskiego	50.1148683	19.9088094
Ku Raciborowicom	50.1088313	20.0367460
Rybałtowska	50.0944030	19.9161593
Pękowicka	50.1004298	19.9150564
Poznańska	50.0780570	19.9249558
Michała Wójcickiego	50.0802858	19.8659722
Stróża Rybna	50.0435073	19.9819047
Franciszka Hynka	50.0822340	20.0134757
Tytusa Chałubińskiego	49.9919736	19.9404326
Dąbrowa	50.0162663	19.8413055
Dąbrowa	50.0137642	19.8403975
Odmogile	50.0830340	20.0442760
Hansa Christiana Andersena	50.0835916	20.0412307
Stadionowa	50.0856556	20.0395719
Nad Dłubnią	50.0864575	20.0411656
Królowej Marysieńki	50.0940580	20.0269556
Szymona Marycjusza	50.0982121	20.0266115
Szymona Marycjusza	50.0981925	20.0254939
Piasta Kołodzieja	50.1007681	20.0130524
Piasta Kołodzieja	50.1011902	20.0130823
Piasta Kołodzieja	50.1014609	20.0129695
Jana Styki	50.0832273	19.9192514
Jasna	50.0963537	19.9306307
Szymona Zimorowicza	50.0954047	19.9306226
Jarzynowa	50.0964904	19.9294198
Mączna	50.0961955	19.9287025
Stanisława Zaremby	50.0958095	19.9274171
Senatorska	50.0546952	19.9197790
Plac Na Stawach	50.0545989	19.9207440
Filarecka	50.0558195	19.9203617
Władysława Syrokomli	50.0564167	19.9253850
Władysława Syrokomli	50.0574218	19.9248569
Senatorska	50.0541275	19.9186296
Akademicka	50.0664734	19.9174557
Majora Pilota Mariana Pisarka	50.0843029	20.0005532
Plac Wszystkich Świętych	50.0591647	19.9373883
Grodzka	50.0591387	19.9378464
Sienna	50.0603495	19.9409600
Bracka	50.0598377	19.9362334
Biskupa Jana Prandoty	50.0785451	19.9491819
Oleandry	50.0616109	19.9211102
Dolnych Młynów	50.0648942	19.9273783
Szpitalna	50.0638655	19.9420261
Warszawska	50.0715290	19.9443200
Pod Stokiem	50.0724283	19.8536301
Malownicza	50.0716117	19.8513061
Turniejowa	50.0089055	19.9594241
Turniejowa	50.0105696	19.9610720
Turniejowa	50.0103117	19.9599721
Kordiana	50.0093502	19.9629825
Kordiana	50.0101688	19.9626431
Marii i Bolesława Wysłouchów	50.0074320	19.9600099
Marii i Bolesława Wysłouchów	50.0069761	19.9581386
Stanisława Balickiego	50.0265507	19.9866998
Kolejowa	50.0262145	19.9875685
Prokocimska	50.0296321	19.9817726
Podgórska	50.0539771	19.9602808
Stanisława Przybyszewskiego	50.0703228	19.8950181
Władysława Reymonta	50.0649720	19.9179539
Władysława Reymonta	50.0639690	19.9226158
Władysława Reymonta	50.0664854	19.9093370
Łowienicka	50.0082494	19.9466572
Jakuba Bojki	50.0053131	19.9623248
Franciszka Bujaka	50.0099323	19.9496694
Jakuba Bojki	50.0066775	19.9649548
Mydlarska	50.0460077	19.9644984
Semperitowców	50.0556909	19.9577309
Hetmana Stanisława Żółkiewskiego	50.0591423	19.9582981
Grzegórzecka	50.0568897	19.9611460
Kotlarska	50.0565625	19.9594350
Hetmana Stanisława Żółkiewskiego	50.0604114	19.9593105
Mogilska	50.0669772	19.9589396
Generała Józefa Chłopickiego	50.0666042	19.9604153
Generała Józefa Chłopickiego	50.0666099	19.9610204
Księdza Stefana Pawlickiego	50.0448617	19.9182171
Księdza Stefana Pawlickiego	50.0447760	19.9182475
Masarska	50.0550704	19.9568296
Zabłocie	50.0502421	19.9618904
Rakowicka	50.0681222	19.9525107
Rakowicka	50.0684830	19.9527762
Powiśle	50.0552505	19.9323466
Wodna	50.0349059	19.9700476
Wodna	50.0354713	19.9710547
Drewniana	50.0341452	19.9711219
Wodna	50.0343565	19.9699756
Ludowa	50.0383033	19.9648091
Wapienna	50.0378671	19.9629916
Zielony Jar	50.0955240	20.0567142
Jarzębiny	50.0954613	20.0618428
Morwowa	50.0950000	20.0634045
Architektów	50.0968325	20.0603913
Mierniczych	50.0959663	20.0559177
Karola Darwina	50.0907474	20.0668189
Bulwar Czerwieński	50.0501371	19.9349391
Grodzka	50.0547010	19.9384883
Tadeusza Kościuszki	50.0528737	19.9197273
Bulwar Rodła	50.0520277	19.9182273
Tadeusza Kościuszki	50.0526599	19.9170216
Flisacka	50.0523565	19.9162030
Senatorska	50.0528178	19.9163077
Senatorska	50.0530634	19.9166630
Tadeusza Kościuszki	50.0527179	19.9165457
Na Błoniach	50.0575968	19.9061886
Kasztelańska	50.0556205	19.9141493
Jana Korepty	50.0155264	20.0317341
Rakuś	50.0096721	20.0350341
Rakuś	50.0078812	20.0348802
Rakuś	50.0083730	20.0350457
Zamłynie	50.0150580	20.0334585
Zamłynie	50.0141798	20.0368775
Romana Florera	50.0851655	19.9982988
Komuny Paryskiej	49.9995142	19.8944904
Zaporoska	50.0002499	19.8951191
Krymska	50.0009524	19.8955709
Puszkarska	50.0304906	19.9473754
Przyjaźni Polsko-Węgierskiej	50.0233532	19.9460608
Generała Henryka Kamieńskiego	50.0284174	19.9546612
Tyniecka	50.0366173	19.8894314
Tyniecka	50.0355754	19.8870388
Jana Długosza	50.0432282	19.9415056
Ludwinowska	50.0442410	19.9398878
Bulwar Podolski	50.0443624	19.9430283
Zabłocie	50.0502733	19.9595294
Na Dołach	50.0473552	19.9690034
Gustawa Herlinga-Grudzińskiego	50.0493976	19.9662967
Stanisława Klimeckiego	50.0477239	19.9694835
Portowa	50.0513317	19.9730149
Mieczykowa	49.9986033	19.9006850
Rotmistrza Zbigniewa Dunin-Wąsowicza	50.0564433	19.9224547
Józefa Kałuży	50.0588957	19.9224618
Włóczków	50.0546718	19.9254531
Tadeusza Kościuszki	50.0545647	19.9259378
Tadeusza Kościuszki	50.0544926	19.9257166
Świątnicka	50.0268951	19.9769670
Prokocim Szpital	50.0144037	19.9987542
Teligi	50.0165955	20.0069010
Balicka	50.0810524	19.8915950
Okrąglak	50.0152600	20.0169491
Za Torem	50.0401840	19.9566382
Parkowa	50.0415284	19.9524999
Wilcza	50.0850549	19.9019945
Ketlinga	50.0006291	19.8987992
Michała Korpala	50.0022900	19.8986453
Pod Dębami	50.0018922	19.8982151
Babinicza	50.0012296	19.8994461
Anusi	50.0009604	19.8973943
Laudańska	50.0013557	19.8976807
Dęboroga	50.0021732	19.8979091
Butrymów	50.0014765	19.8978832
Billewiczów	50.0007146	19.8972696
Pod Strugą	50.0005960	19.8970770
Zbaraska	50.0020198	19.8977255
Michała Korpala	50.0027721	19.8974060
Władysława Łokietka	50.0908931	19.9187320
Władysława Łokietka	50.0916577	19.9180471
Doktora Twardego	50.0818411	19.9352296
Józefa Wybickiego	50.0840023	19.9318223
Drożdżowa	50.0121343	20.0386987
Bieżanowska	50.0243684	19.9933249
Maksymiliana i Aleksandra Gierymskich	50.0257181	19.9882681
Kolejowa	50.0266356	19.9868551
Wojciecha Lipowskiego	50.0111303	20.0353501
Bieżanowska	50.0182908	20.0338888
